$GPRMC,151923.000,A,2943.3854,N,09520.4985,W,0.49,281.20,090516,,,A*76
$GPRMC,151924.000,A,2943.3858,N,09520.4985,W,0.48,271.31,090516,,,A*73
$GPRMC,151925.000,A,2943.3860,N,09520.4984,W,0.47,264.99,090516,,,A*71
$GPRMC,151925.208,A,2943.3862,N,09520.4982,W,0.49,262.77,090516,,,A*77
$GPRMC,151927.000,A,2943.3861,N,09520.4985,W,0.64,257.78,090516,,,A*7D
$GPRMC,151928.000,A,2943.3861,N,09520.4985,W,0.96,252.24,090516,,,A*73
$GPRMC,151929.000,A,2943.3863,N,09520.4982,W,0.82,247.87,090516,,,A*7F
$GPRMC,151930.000,A,2943.3868,N,09520.4979,W,0.77,246.67,090516,,,A*7D
$GPRMC,151931.000,A,2943.3871,N,09520.4976,W,0.63,245.59,090516,,,A*70
$GPRMC,151931.211,A,2943.3873,N,09520.4973,W,0.59,242.30,090516,,,A*74
$GPRMC,151933.000,A,2943.3872,N,09520.4974,W,0.73,231.41,090516,,,A*78
$GPRMC,151934.000,A,2943.3870,N,09520.4978,W,1.06,230.18,090516,,,A*7F
$GPRMC,151935.000,A,2943.3860,N,09520.4985,W,0.99,224.32,090516,,,A*77
$GPRMC,151936.000,A,2943.3853,N,09520.4989,W,0.82,214.38,090516,,,A*7B
$GPRMC,151937.000,A,2943.3846,N,09520.4993,W,0.79,210.94,090516,,,A*73
$GPRMC,151937.210,A,2943.3840,N,09520.4996,W,0.79,207.50,090516,,,A*7D
$GPRMC,151939.000,A,2943.3829,N,09520.5003,W,0.92,211.48,090516,,,A*70
$GPRMC,151940.000,A,2943.3820,N,09520.5011,W,1.25,220.63,090516,,,A*72
$GPRMC,151941.000,A,2943.3815,N,09520.5010,W,1.21,216.32,090516,,,A*71
$GPRMC,151942.000,A,2943.3812,N,09520.5011,W,1.16,214.78,090516,,,A*7C
$GPRMC,151943.000,A,2943.3806,N,09520.5015,W,1.18,213.09,090516,,,A*73
$GPRMC,151946.000,A,2943.3794,N,09520.5021,W,1.02,206.79,090516,,,A*7D
$GPRMC,151947.000,A,2943.3790,N,09520.5022,W,0.99,204.41,090516,,,A*71
$GPRMC,151949.000,A,2943.3786,N,09520.5024,W,0.89,204.80,090516,,,A*72
$GPRMC,151952.000,A,2943.3781,N,09520.5026,W,0.87,207.44,090516,,,A*78
$GPRMC,151953.000,A,2943.3784,N,09520.5026,W,0.73,210.74,090516,,,A*72
$GPRMC,151954.000,A,2943.3787,N,09520.5024,W,0.56,209.08,090516,,,A*70
$GPRMC,151955.000,A,2943.3786,N,09520.5024,W,0.50,207.53,090516,,,A*76
$GPRMC,151958.000,A,2943.3780,N,09520.5028,W,0.64,213.89,090516,,,A*74
$GPRMC,151959.000,A,2943.3783,N,09520.5027,W,0.48,211.56,090516,,,A*77
$GPRMC,152000.000,A,2943.3784,N,09520.5027,W,0.38,205.63,090516,,,A*72
$GPRMC,152001.000,A,2943.3782,N,09520.5029,W,0.48,209.00,090516,,,A*75
$GPRMC,152004.000,A,2943.3782,N,09520.5029,W,0.45,206.41,090516,,,A*77
$GPRMC,152005.000,A,2943.3783,N,09520.5027,W,0.32,198.43,090516,,,A*7F
$GPRMC,152006.000,A,2943.3784,N,09520.5026,W,0.31,191.59,090516,,,A*7B
$GPRMC,152007.000,A,2943.3786,N,09520.5026,W,0.22,196.73,090516,,,A*75
$GPRMC,152010.000,A,2943.3792,N,09520.5029,W,0.19,268.73,090516,,,A*73
$GPRMC,152011.000,A,2943.3801,N,09520.5027,W,0.32,340.29,090516,,,A*74
$GPRMC,152012.000,A,2943.3805,N,09520.5026,W,0.39,347.23,090516,,,A*74
$GPRMC,152013.000,A,2943.3806,N,09520.5027,W,0.38,339.18,090516,,,A*77
$GPRMC,152016.000,A,2943.3811,N,09520.5027,W,0.37,340.46,090516,,,A*7E
$GPRMC,152017.000,A,2943.3814,N,09520.5028,W,0.44,341.52,090516,,,A*75
$GPRMC,152018.000,A,2943.3818,N,09520.5030,W,0.48,335.27,090516,,,A*72
$GPRMC,152019.000,A,2943.3818,N,09520.5032,W,0.47,319.95,090516,,,A*79
$GPRMC,152022.000,A,2943.3817,N,09520.5035,W,0.27,305.38,090516,,,A*75
$GPRMC,152023.000,A,2943.3819,N,09520.5037,W,0.35,304.97,090516,,,A*7F
$GPRMC,152024.000,A,2943.3820,N,09520.5038,W,0.31,303.32,090516,,,A*71
$GPRMC,152025.000,A,2943.3821,N,09520.5039,W,0.34,316.86,090516,,,A*7E
$GPRMC,152028.000,A,2943.3823,N,09520.5041,W,0.43,320.84,090516,,,A*79
$GPRMC,152029.000,A,2943.3824,N,09520.5042,W,0.36,306.99,090516,,,A*76
$GPRMC,152030.000,A,2943.3825,N,09520.5043,W,0.35,306.32,090516,,,A*7C
$GPRMC,152031.000,A,2943.3825,N,09520.5044,W,0.33,295.47,090516,,,A*75
$GPRMC,152034.000,A,2943.3826,N,09520.5047,W,0.30,271.98,090516,,,A*7B
$GPRMC,152035.000,A,2943.3826,N,09520.5048,W,0.25,267.69,090516,,,A*78
$GPRMC,152036.000,A,2943.3825,N,09520.5048,W,0.16,248.33,090516,,,A*7A
$GPRMC,152037.000,A,2943.3825,N,09520.5049,W,0.20,243.31,090516,,,A*76
$GPRMC,152040.000,A,2943.3824,N,09520.5050,W,0.15,1.69,090516,,,A*70
$GPRMC,152041.000,A,2943.3825,N,09520.5050,W,0.29,357.79,090516,,,A*7E
$GPRMC,152042.000,A,2943.3826,N,09520.5050,W,0.20,349.31,090516,,,A*74
$GPRMC,152043.000,A,2943.3826,N,09520.5050,W,0.16,1.04,090516,,,A*79
$GPRMC,152046.000,A,2943.3831,N,09520.5045,W,0.27,16.20,090516,,,A*4C
$GPRMC,152047.000,A,2943.3832,N,09520.5044,W,0.28,18.48,090516,,,A*40
$GPRMC,152048.000,A,2943.3833,N,09520.5044,W,0.30,28.53,090516,,,A*4E
$GPRMC,152049.000,A,2943.3834,N,09520.5044,W,0.17,41.45,090516,,,A*45
$GPRMC,152052.000,A,2943.3834,N,09520.5042,W,0.12,145.81,090516,,,A*71
$GPRMC,152053.000,A,2943.3834,N,09520.5042,W,0.21,179.88,090516,,,A*76
$GPRMC,152054.000,A,2943.3833,N,09520.5042,W,0.23,176.98,090516,,,A*7A
$GPRMC,152055.000,A,2943.3832,N,09520.5042,W,0.17,185.46,090516,,,A*72
$GPRMC,152058.000,A,2943.3833,N,09520.5040,W,0.33,80.58,090516,,,A*41
$GPRMC,152059.000,A,2943.3834,N,09520.5039,W,0.37,67.38,090516,,,A*42
$GPRMC,152100.000,A,2943.3834,N,09520.5038,W,0.38,63.40,090516,,,A*4A
$GPRMC,152101.000,A,2943.3835,N,09520.5037,W,0.35,61.24,090516,,,A*48
$GPRMC,152102.000,A,2943.3835,N,09520.5036,W,0.26,48.86,090516,,,A*4B
$GPRMC,152103.000,A,2943.3836,N,09520.5035,W,0.27,42.53,090516,,,A*49
$GPRMC,152104.000,A,2943.3837,N,09520.5034,W,0.25,27.56,090516,,,A*4A
$GPRMC,152105.000,A,2943.3837,N,09520.5034,W,0.33,19.80,090516,,,A*4A
$GPRMC,152106.000,A,2943.3838,N,09520.5034,W,0.42,10.48,090516,,,A*4D
$GPRMC,152107.000,A,2943.3840,N,09520.5033,W,0.56,3.10,090516,,,A*7E
$GPRMC,152108.000,A,2943.3841,N,09520.5033,W,0.62,356.19,090516,,,A*7D
$GPRMC,152109.000,A,2943.3846,N,09520.5032,W,0.61,353.60,090516,,,A*72
$GPRMC,152110.000,A,2943.3850,N,09520.5028,W,0.58,349.69,090516,,,A*7E
$GPRMC,152111.000,A,2943.3855,N,09520.5027,W,0.65,341.65,090516,,,A*7F
$GPRMC,152112.000,A,2943.3859,N,09520.5027,W,0.66,341.81,090516,,,A*79
$GPRMC,152113.000,A,2943.3864,N,09520.5026,W,0.67,335.18,090516,,,A*75
$GPRMC,152114.000,A,2943.3890,N,09520.5020,W,0.98,336.73,090516,,,A*71
$GPRMC,152115.000,A,2943.3927,N,09520.5013,W,1.31,333.01,090516,,,A*7F
$GPRMC,152116.000,A,2943.3934,N,09520.5015,W,1.32,326.62,090516,,,A*7A
$GPRMC,152117.000,A,2943.3939,N,09520.5015,W,1.29,325.41,090516,,,A*7E
$GPRMC,152118.000,A,2943.3970,N,09520.5008,W,1.43,333.93,090516,,,A*74
$GPRMC,152119.000,A,2943.3971,N,09520.5006,W,1.27,332.34,090516,,,A*74
$GPRMC,152120.000,A,2943.3978,N,09520.5005,W,1.22,333.53,090516,,,A*71
$GPRMC,152121.000,A,2943.3980,N,09520.5003,W,1.05,329.84,090516,,,A*75
$GPRMC,152122.000,A,2943.3985,N,09520.5002,W,1.03,332.94,090516,,,A*7F
$GPRMC,152123.000,A,2943.3988,N,09520.5000,W,0.96,331.94,090516,,,A*7F
$GPRMC,152124.000,A,2943.3993,N,09520.4998,W,0.91,335.81,090516,,,A*7C
$GPRMC,152125.000,A,2943.3993,N,09520.4995,W,0.74,335.43,090516,,,A*75
$GPRMC,152126.000,A,2943.3998,N,09520.4992,W,0.72,339.36,090516,,,A*72
$GPRMC,152127.000,A,2943.3999,N,09520.4989,W,0.60,344.83,090516,,,A*7F
$GPRMC,152128.000,A,2943.3999,N,09520.4986,W,0.40,344.21,090516,,,A*75
$GPRMC,152129.000,A,2943.4000,N,09520.4983,W,0.33,347.27,090516,,,A*7E
$GPRMC,152130.000,A,2943.4001,N,09520.4982,W,0.47,349.58,090516,,,A*73
$GPRMC,152131.000,A,2943.3997,N,09520.4978,W,0.28,357.68,090516,,,A*73
$GPRMC,152132.000,A,2943.3998,N,09520.4978,W,0.32,3.22,090516,,,A*78
$GPRMC,152133.000,A,2943.3999,N,09520.4978,W,0.39,9.56,090516,,,A*7A
$GPRMC,152134.000,A,2943.4000,N,09520.4978,W,0.44,5.92,090516,,,A*7D
$GPRMC,152135.000,A,2943.4001,N,09520.4977,W,0.43,7.33,090516,,,A*7C
$GPRMC,152136.000,A,2943.4003,N,09520.4977,W,0.42,2.09,090516,,,A*70
$GPRMC,152137.000,A,2943.4004,N,09520.4977,W,0.33,17.01,090516,,,A*4C
$GPRMC,152138.000,A,2943.4005,N,09520.4977,W,0.25,28.26,090516,,,A*4C
$GPRMC,152139.000,A,2943.4005,N,09520.4976,W,0.11,26.76,090516,,,A*40
$GPRMC,152140.000,A,2943.4005,N,09520.4976,W,0.15,82.13,090516,,,A*47
$GPRMC,152141.000,A,2943.4006,N,09520.4975,W,0.16,74.73,090516,,,A*4A
$GPRMC,152142.000,A,2943.4006,N,09520.4975,W,0.15,53.24,090516,,,A*4D
$GPRMC,152143.000,A,2943.4006,N,09520.4974,W,0.23,42.79,090516,,,A*40
$GPRMC,152144.000,A,2943.4006,N,09520.4974,W,0.38,61.33,090516,,,A*42
$GPRMC,152145.000,A,2943.4007,N,09520.4973,W,0.37,62.83,090516,,,A*42
$GPRMC,152146.000,A,2943.4007,N,09520.4971,W,0.40,66.56,090516,,,A*4F
$GPRMC,152147.000,A,2943.4008,N,09520.4970,W,0.43,72.54,090516,,,A*44
$GPRMC,152148.000,A,2943.4008,N,09520.4969,W,0.41,61.56,090516,,,A*41
$GPRMC,152149.000,A,2943.4009,N,09520.4968,W,0.30,59.62,090516,,,A*4A
$GPRMC,152150.000,A,2943.4009,N,09520.4967,W,0.23,13.11,090516,,,A*45
$GPRMC,152151.000,A,2943.4010,N,09520.4967,W,0.23,1.50,090516,,,A*7A
$GPRMC,152152.000,A,2943.4011,N,09520.4966,W,0.15,359.61,090516,,,A*70
$GPRMC,152153.000,A,2943.4011,N,09520.4966,W,0.27,19.32,090516,,,A*41
$GPRMC,152154.000,A,2943.4012,N,09520.4966,W,0.28,6.80,090516,,,A*7D
$GPRMC,152155.000,A,2943.4013,N,09520.4966,W,0.25,356.92,090516,,,A*75
$GPRMC,152156.000,A,2943.4013,N,09520.4966,W,0.20,350.69,090516,,,A*71
$GPRMC,152157.000,A,2943.4014,N,09520.4966,W,0.23,6.41,090516,,,A*7E
$GPRMC,152158.000,A,2943.4015,N,09520.4966,W,0.38,7.49,090516,,,A*73
$GPRMC,152159.000,A,2943.4016,N,09520.4965,W,0.24,9.07,090516,,,A*7B
$GPRMC,152200.000,A,2943.4017,N,09520.4965,W,0.29,1.60,090516,,,A*71
$GPRMC,152201.000,A,2943.4017,N,09520.4965,W,0.39,358.33,090516,,,A*78
$GPRMC,152202.000,A,2943.4019,N,09520.4965,W,0.29,359.08,090516,,,A*7D
$GPRMC,152203.000,A,2943.4019,N,09520.4965,W,0.30,2.07,090516,,,A*76
$GPRMC,152204.000,A,2943.4020,N,09520.4965,W,0.43,0.64,090516,,,A*78
$GPRMC,152205.000,A,2943.4022,N,09520.4965,W,0.46,336.85,090516,,,A*77
$GPRMC,152206.000,A,2943.4023,N,09520.4965,W,0.50,338.29,090516,,,A*7A
$GPRMC,152207.000,A,2943.4024,N,09520.4966,W,0.47,356.66,090516,,,A*7A
$GPRMC,152208.000,A,2943.4025,N,09520.4966,W,0.44,6.85,090516,,,A*7C
$GPRMC,152209.000,A,2943.4027,N,09520.4966,W,0.38,2.56,090516,,,A*7E
$GPRMC,152210.000,A,2943.4028,N,09520.4966,W,0.37,355.87,090516,,,A*7B
$GPRMC,152211.000,A,2943.4029,N,09520.4966,W,0.26,339.44,090516,,,A*7E
$GPRMC,152212.000,A,2943.4029,N,09520.4966,W,0.37,358.30,090516,,,A*79
$GPRMC,152213.000,A,2943.4030,N,09520.4966,W,0.41,2.95,090516,,,A*72
$GPRMC,152214.000,A,2943.4032,N,09520.4966,W,0.42,25.60,090516,,,A*4B
$GPRMC,152215.000,A,2943.4033,N,09520.4965,W,0.41,31.89,090516,,,A*49
$GPRMC,152216.000,A,2943.4034,N,09520.4964,W,0.46,29.09,090516,,,A*4A
$GPRMC,152217.000,A,2943.4035,N,09520.4964,W,0.40,31.32,090516,,,A*4D
$GPRMC,152218.000,A,2943.4036,N,09520.4963,W,0.37,20.80,090516,,,A*4F
$GPRMC,152219.000,A,2943.4037,N,09520.4962,W,0.52,26.31,090516,,,A*41
$GPRMC,152220.000,A,2943.4038,N,09520.4962,W,0.47,35.96,090516,,,A*4F
$GPRMC,152221.000,A,2943.4039,N,09520.4961,W,0.40,41.79,090516,,,A*49
$GPRMC,152222.000,A,2943.4040,N,09520.4960,W,0.34,20.81,090516,,,A*46
$GPRMC,152223.000,A,2943.4041,N,09520.4959,W,0.49,27.33,090516,,,A*48
$GPRMC,152224.000,A,2943.4042,N,09520.4959,W,0.51,30.26,090516,,,A*47
$GPRMC,152225.000,A,2943.4044,N,09520.4958,W,0.47,30.62,090516,,,A*46
$GPRMC,152226.000,A,2943.4045,N,09520.4957,W,0.50,31.01,090516,,,A*49
$GPRMC,152227.000,A,2943.4046,N,09520.4956,W,0.50,40.77,090516,,,A*4D
$GPRMC,152228.000,A,2943.4047,N,09520.4955,W,0.50,42.97,090516,,,A*4C
$GPRMC,152229.000,A,2943.4048,N,09520.4954,W,0.41,44.37,090516,,,A*4F
$GPRMC,152230.000,A,2943.4049,N,09520.4953,W,0.40,26.97,090516,,,A*4E
$GPRMC,152231.000,A,2943.4050,N,09520.4952,W,0.34,36.28,090516,,,A*40
$GPRMC,152232.000,A,2943.4051,N,09520.4952,W,0.32,52.95,090516,,,A*40
$GPRMC,152233.000,A,2943.4051,N,09520.4951,W,0.24,34.15,090516,,,A*4D
$GPRMC,152234.000,A,2943.4052,N,09520.4950,W,0.20,40.46,090516,,,A*49
$GPRMC,152235.000,A,2943.4052,N,09520.4950,W,0.18,55.06,090516,,,A*43
$GPRMC,152236.000,A,2943.4052,N,09520.4949,W,0.29,84.83,090516,,,A*4B
$GPRMC,152237.000,A,2943.4052,N,09520.4948,W,0.24,65.99,090516,,,A*42
$GPRMC,152238.000,A,2943.4053,N,09520.4948,W,0.30,53.06,090516,,,A*4A
$GPRMC,152239.000,A,2943.4053,N,09520.4947,W,0.29,22.61,090516,,,A*4B
$GPRMC,152240.000,A,2943.4054,N,09520.4946,W,0.20,71.08,090516,,,A*43
$GPRMC,152241.000,A,2943.4054,N,09520.4946,W,0.13,74.60,090516,,,A*49
$GPRMC,152242.000,A,2943.4054,N,09520.4945,W,0.19,102.57,090516,,,A*77
$GPRMC,152243.000,A,2943.4054,N,09520.4945,W,0.22,115.79,090516,,,A*74
$GPRMC,152244.000,A,2943.4054,N,09520.4944,W,0.25,129.72,090516,,,A*71
$GPRMC,152245.000,A,2943.4053,N,09520.4943,W,0.31,105.51,090516,,,A*7A
$GPRMC,152246.000,A,2943.4053,N,09520.4942,W,0.32,99.53,090516,,,A*4D
$GPRMC,152247.000,A,2943.4053,N,09520.4941,W,0.45,91.86,090516,,,A*4F
$GPRMC,152248.000,A,2943.4053,N,09520.4939,W,0.53,93.50,090516,,,A*41
$GPRMC,152249.000,A,2943.4053,N,09520.4938,W,0.43,84.88,090516,,,A*43
$GPRMC,152250.000,A,2943.4053,N,09520.4936,W,0.39,72.37,090516,,,A*45
$GPRMC,152251.000,A,2943.4053,N,09520.4935,W,0.37,80.38,090516,,,A*4B
$GPRMC,152252.000,A,2943.4053,N,09520.4934,W,0.37,109.42,090516,,,A*74
$GPRMC,152253.000,A,2943.4053,N,09520.4933,W,0.26,109.23,090516,,,A*75
$GPRMC,152254.000,A,2943.4053,N,09520.4932,W,0.09,209.48,090516,,,A*70
$GPRMC,152255.000,A,2943.4053,N,09520.4932,W,0.03,45.22,090516,,,A*4D
$GPRMC,152256.000,A,2943.4053,N,09520.4932,W,0.10,333.10,090516,,,A*7F
$GPRMC,152257.000,A,2943.4053,N,09520.4932,W,0.09,293.47,090516,,,A*7F
$GPRMC,152258.000,A,2943.4053,N,09520.4933,W,0.05,323.46,090516,,,A*76
$GPRMC,152259.000,A,2943.4053,N,09520.4933,W,0.20,16.49,090516,,,A*4A
$GPRMC,152300.000,A,2943.4054,N,09520.4932,W,0.24,19.83,090516,,,A*4C
$GPRMC,152301.000,A,2943.4054,N,09520.4932,W,0.19,353.38,090516,,,A*7E
$GPRMC,152302.000,A,2943.4055,N,09520.4932,W,0.20,348.65,090516,,,A*74
$GPRMC,152303.000,A,2943.4056,N,09520.4932,W,0.26,11.91,090516,,,A*44
$GPRMC,152304.000,A,2943.4056,N,09520.4932,W,0.29,351.69,090516,,,A*7C
$GPRMC,152305.000,A,2943.4057,N,09520.4932,W,0.28,13.39,090516,,,A*4D
$GPRMC,152306.000,A,2943.4058,N,09520.4932,W,0.23,350.08,090516,,,A*7C
$GPRMC,152307.000,A,2943.4058,N,09520.4932,W,0.18,317.35,090516,,,A*78
$GPRMC,152308.000,A,2943.4059,N,09520.4933,W,0.27,303.23,090516,,,A*79
$GPRMC,152309.000,A,2943.4059,N,09520.4933,W,0.28,295.06,090516,,,A*7E
$GPRMC,152310.000,A,2943.4059,N,09520.4934,W,0.12,300.33,090516,,,A*73
$GPRMC,152311.000,A,2943.4059,N,09520.4934,W,0.04,225.36,090516,,,A*76
$GPRMC,152312.000,A,2943.4059,N,09520.4934,W,0.09,216.93,090516,,,A*77
$GPRMC,152313.000,A,2943.4059,N,09520.4935,W,0.16,211.96,090516,,,A*7B
$GPRMC,152314.000,A,2943.4059,N,09520.4935,W,0.22,240.35,090516,,,A*76
$GPRMC,152315.000,A,2943.4058,N,09520.4936,W,0.24,228.37,090516,,,A*7F
$GPRMC,152316.000,A,2943.4058,N,09520.4936,W,0.14,250.94,090516,,,A*79
$GPRMC,152317.000,A,2943.4058,N,09520.4937,W,0.29,252.59,090516,,,A*74
$GPRMC,152318.000,A,2943.4058,N,09520.4937,W,0.31,266.48,090516,,,A*75
$GPRMC,152319.000,A,2943.4058,N,09520.4938,W,0.35,266.54,090516,,,A*72
$GPRMC,152320.000,A,2943.4058,N,09520.4940,W,0.30,268.04,090516,,,A*79
$GPRMC,152321.000,A,2943.4058,N,09520.4941,W,0.34,273.94,090516,,,A*7E
$GPRMC,152322.000,A,2943.4058,N,09520.4942,W,0.40,270.44,090516,,,A*73
$GPRMC,152323.000,A,2943.4058,N,09520.4943,W,0.40,274.96,090516,,,A*78
$GPRMC,152324.000,A,2943.4058,N,09520.4944,W,0.49,279.75,090516,,,A*71
$GPRMC,152325.000,A,2943.4058,N,09520.4946,W,0.47,286.65,090516,,,A*7D
$GPRMC,152326.000,A,2943.4058,N,09520.4947,W,0.42,285.52,090516,,,A*7D
$GPRMC,152327.000,A,2943.4059,N,09520.4949,W,0.35,280.00,090516,,,A*71
$GPRMC,152328.000,A,2943.4059,N,09520.4950,W,0.22,278.64,090516,,,A*75
$GPRMC,152329.000,A,2943.4059,N,09520.4950,W,0.19,284.57,090516,,,A*7F
$GPRMC,152330.000,A,2943.4059,N,09520.4951,W,0.26,284.53,090516,,,A*7E
$GPRMC,152331.000,A,2943.4059,N,09520.4952,W,0.16,275.83,090516,,,A*7C
$GPRMC,152332.000,A,2943.4059,N,09520.4952,W,0.09,270.93,090516,,,A*75
$GPRMC,152333.000,A,2943.4059,N,09520.4953,W,0.09,245.04,090516,,,A*7D
$GPRMC,152334.000,A,2943.4059,N,09520.4953,W,0.17,254.83,090516,,,A*7A
$GPRMC,152335.000,A,2943.4059,N,09520.4953,W,0.12,258.58,090516,,,A*74
$GPRMC,152336.000,A,2943.4059,N,09520.4954,W,0.02,112.02,090516,,,A*73
$GPRMC,152337.000,A,2943.4059,N,09520.4954,W,0.05,74.13,090516,,,A*44
$GPRMC,152338.000,A,2943.4059,N,09520.4954,W,0.09,47.43,090516,,,A*42
$GPRMC,152339.000,A,2943.4059,N,09520.4953,W,0.05,57.03,090516,,,A*4D
$GPRMC,152340.000,A,2943.4059,N,09520.4953,W,0.02,37.75,090516,,,A*43
$GPRMC,152341.000,A,2943.4059,N,09520.4953,W,0.09,146.45,090516,,,A*7D
$GPRMC,152342.000,A,2943.4059,N,09520.4953,W,0.20,153.58,090516,,,A*7D
$GPRMC,152343.000,A,2943.4058,N,09520.4953,W,0.25,142.34,090516,,,A*72
$GPRMC,152344.000,A,2943.4058,N,09520.4952,W,0.31,128.35,090516,,,A*7C
$GPRMC,152345.000,A,2943.4057,N,09520.4951,W,0.26,146.94,090516,,,A*74
$GPRMC,152346.000,A,2943.4056,N,09520.4951,W,0.34,149.21,090516,,,A*74
$GPRMC,152347.000,A,2943.4056,N,09520.4950,W,0.36,145.35,090516,,,A*7F
$GPRMC,152348.000,A,2943.4055,N,09520.4950,W,0.42,128.47,090516,,,A*7E
$GPRMC,152349.000,A,2943.4054,N,09520.4949,W,0.37,134.18,090516,,,A*73
$GPRMC,152350.000,A,2943.4053,N,09520.4948,W,0.34,147.71,090516,,,A*75
$GPRMC,152351.000,A,2943.4053,N,09520.4947,W,0.23,144.08,090516,,,A*70
$GPRMC,152352.000,A,2943.4052,N,09520.4947,W,0.18,149.61,090516,,,A*78
$GPRMC,152353.000,A,2943.4052,N,09520.4947,W,0.13,196.84,090516,,,A*7B
$GPRMC,152354.000,A,2943.4052,N,09520.4947,W,0.15,258.31,090516,,,A*75
$GPRMC,152355.000,A,2943.4052,N,09520.4947,W,0.23,289.39,090516,,,A*75
$GPRMC,152356.000,A,2943.4052,N,09520.4948,W,0.29,293.46,090516,,,A*70
$GPRMC,152357.000,A,2943.4052,N,09520.4949,W,0.34,287.42,090516,,,A*7D
$GPRMC,152358.000,A,2943.4052,N,09520.4950,W,0.32,290.16,090516,,,A*7B
$GPRMC,152359.000,A,2943.4053,N,09520.4951,W,0.28,293.33,090516,,,A*75
$GPRMC,152400.000,A,2943.4053,N,09520.4952,W,0.20,302.68,090516,,,A*72
$GPRMC,152401.000,A,2943.4053,N,09520.4952,W,0.15,299.84,090516,,,A*74
$GPRMC,152402.000,A,2943.4053,N,09520.4953,W,0.11,298.22,090516,,,A*7F
$GPRMC,152403.000,A,2943.4054,N,09520.4953,W,0.04,180.62,090516,,,A*73
$GPRMC,152404.000,A,2943.4053,N,09520.4953,W,0.16,182.99,090516,,,A*76
$GPRMC,152405.000,A,2943.4053,N,09520.4953,W,0.15,171.55,090516,,,A*78
$GPRMC,152406.000,A,2943.4052,N,09520.4953,W,0.17,194.96,090516,,,A*7C
$GPRMC,152407.000,A,2943.4052,N,09520.4953,W,0.13,205.41,090516,,,A*78
$GPRMC,152408.000,A,2943.4052,N,09520.4953,W,0.21,217.97,090516,,,A*7E
$GPRMC,152409.000,A,2943.4051,N,09520.4954,W,0.34,227.51,090516,,,A*76
$GPRMC,152410.000,A,2943.4051,N,09520.4955,W,0.31,224.99,090516,,,A*7D
$GPRMC,152411.000,A,2943.4050,N,09520.4955,W,0.28,219.17,090516,,,A*7D
$GPRMC,152412.000,A,2943.4049,N,09520.4956,W,0.27,212.53,090516,,,A*71
$GPRMC,152413.000,A,2943.4049,N,09520.4956,W,0.30,211.65,090516,,,A*70
$GPRMC,152414.000,A,2943.4048,N,09520.4957,W,0.32,208.24,090516,,,A*78
$GPRMC,152415.000,A,2943.4047,N,09520.4957,W,0.31,208.70,090516,,,A*74
$GPRMC,152416.000,A,2943.4047,N,09520.4958,W,0.23,197.83,090516,,,A*72
$GPRMC,152417.000,A,2943.4046,N,09520.4958,W,0.22,170.08,090516,,,A*79
$GPRMC,152418.000,A,2943.4045,N,09520.4958,W,0.15,184.82,090516,,,A*78
$GPRMC,152419.000,A,2943.4045,N,09520.4958,W,0.10,212.04,090516,,,A*7E
$GPRMC,152420.000,A,2943.4045,N,09520.4958,W,0.10,281.37,090516,,,A*7E
$GPRMC,152421.000,A,2943.4045,N,09520.4959,W,0.13,282.79,090516,,,A*74
$GPRMC,152422.000,A,2943.4045,N,09520.4959,W,0.15,292.74,090516,,,A*7D
$GPRMC,152423.000,A,2943.4045,N,09520.4960,W,0.21,284.92,090516,,,A*7E
$GPRMC,152424.000,A,2943.4045,N,09520.4961,W,0.24,282.06,090516,,,A*76
$GPRMC,152425.000,A,2943.4046,N,09520.4961,W,0.32,275.39,090516,,,A*77
$GPRMC,152426.000,A,2943.4046,N,09520.4963,W,0.37,284.13,090516,,,A*75
$GPRMC,152427.000,A,2943.4046,N,09520.4964,W,0.36,288.56,090516,,,A*7F
$GPRMC,152428.000,A,2943.4046,N,09520.4965,W,0.37,290.73,090516,,,A*7E
$GPRMC,152429.000,A,2943.4047,N,09520.4966,W,0.43,286.94,090516,,,A*70
$GPRMC,152430.000,A,2943.4047,N,09520.4967,W,0.47,295.18,090516,,,A*7B
$GPRMC,152431.000,A,2943.4048,N,09520.4969,W,0.50,298.41,090516,,,A*7C
$GPRMC,152432.000,A,2943.4049,N,09520.4970,W,0.57,305.03,090516,,,A*72
$GPRMC,152433.000,A,2943.4050,N,09520.4972,W,0.64,304.35,090516,,,A*7D
$GPRMC,152434.000,A,2943.4054,N,09520.4976,W,0.65,308.06,090516,,,A*77
$GPRMC,152435.000,A,2943.4056,N,09520.4975,W,0.58,316.10,090516,,,A*71
$GPRMC,152436.000,A,2943.4060,N,09520.4979,W,0.62,315.53,090516,,,A*76
$GPRMC,152437.000,A,2943.4061,N,09520.4983,W,0.64,313.74,090516,,,A*76
$GPRMC,152438.000,A,2943.4065,N,09520.4986,W,0.64,317.53,090516,,,A*79
$GPRMC,152439.000,A,2943.4068,N,09520.4988,W,0.65,322.24,090516,,,A*7C
$GPRMC,152440.000,A,2943.4071,N,09520.4990,W,0.62,325.63,090516,,,A*70
$GPRMC,152441.000,A,2943.4070,N,09520.4992,W,0.54,324.36,090516,,,A*76
$GPRMC,152442.000,A,2943.4070,N,09520.4993,W,0.50,321.77,090516,,,A*70
$GPRMC,152443.000,A,2943.4070,N,09520.4993,W,0.45,321.82,090516,,,A*7F
$GPRMC,152444.000,A,2943.4070,N,09520.4991,W,0.46,316.26,090516,,,A*73
$GPRMC,152445.000,A,2943.4071,N,09520.4992,W,0.39,330.31,090516,,,A*7A
$GPRMC,152446.000,A,2943.4072,N,09520.4993,W,0.35,356.46,090516,,,A*77
$GPRMC,152447.000,A,2943.4073,N,09520.4993,W,0.31,347.60,090516,,,A*77
$GPRMC,152448.000,A,2943.4074,N,09520.4993,W,0.21,319.20,090516,,,A*71
$GPRMC,152449.000,A,2943.4074,N,09520.4993,W,0.15,296.33,090516,,,A*73
$GPRMC,152450.000,A,2943.4074,N,09520.4994,W,0.15,258.85,090516,,,A*73
$GPRMC,152451.000,A,2943.4074,N,09520.4994,W,0.15,238.90,090516,,,A*70
$GPRMC,152452.000,A,2943.4074,N,09520.4995,W,0.16,228.21,090516,,,A*7A
$GPRMC,152453.000,A,2943.4074,N,09520.4995,W,0.19,201.80,090516,,,A*74
$GPRMC,152454.000,A,2943.4073,N,09520.4995,W,0.16,159.92,090516,,,A*76
$GPRMC,152455.000,A,2943.4073,N,09520.4995,W,0.17,163.61,090516,,,A*73
$GPRMC,152456.000,A,2943.4072,N,09520.4995,W,0.21,188.43,090516,,,A*71
$GPRMC,152457.000,A,2943.4072,N,09520.4995,W,0.23,187.81,090516,,,A*73
$GPRMC,152458.000,A,2943.4071,N,09520.4995,W,0.27,200.52,090516,,,A*79
$GPRMC,152459.000,A,2943.4070,N,09520.4995,W,0.33,201.54,090516,,,A*7B
$GPRMC,152500.000,A,2943.4069,N,09520.4996,W,0.35,201.73,090516,,,A*7E
$GPRMC,152501.000,A,2943.4068,N,09520.4996,W,0.43,209.13,090516,,,A*71
$GPRMC,152502.000,A,2943.4067,N,09520.4997,W,0.34,219.07,090516,,,A*78
$GPRMC,152503.000,A,2943.4067,N,09520.4997,W,0.30,226.85,090516,,,A*7B
$GPRMC,152504.000,A,2943.4066,N,09520.4998,W,0.27,232.24,090516,,,A*7A
$GPRMC,152505.000,A,2943.4066,N,09520.4999,W,0.15,258.85,090516,,,A*7C
$GPRMC,152506.000,A,2943.4066,N,09520.4999,W,0.04,267.66,090516,,,A*7E
$GPRMC,152507.000,A,2943.4066,N,09520.4999,W,0.09,195.80,090516,,,A*74
$GPRMC,152508.000,A,2943.4065,N,09520.4999,W,0.16,193.25,090516,,,A*7F
$GPRMC,152509.000,A,2943.4065,N,09520.5000,W,0.18,181.83,090516,,,A*77
$GPRMC,152510.000,A,2943.4065,N,09520.5000,W,0.07,217.39,090516,,,A*7C
$GPRMC,152511.000,A,2943.4064,N,09520.5000,W,0.18,238.78,090516,,,A*7A
$GPRMC,152512.000,A,2943.4064,N,09520.5000,W,0.33,230.34,090516,,,A*70
$GPRMC,152513.000,A,2943.4063,N,09520.5001,W,0.29,228.50,090516,,,A*77
$GPRMC,152514.000,A,2943.4063,N,09520.5002,W,0.29,233.13,090516,,,A*7E
$GPRMC,152515.000,A,2943.4062,N,09520.5003,W,0.23,208.95,090516,,,A*73
$GPRMC,152516.000,A,2943.4062,N,09520.5003,W,0.18,177.98,090516,,,A*7E
$GPRMC,152517.000,A,2943.4061,N,09520.5003,W,0.24,176.61,090516,,,A*74
$GPRMC,152518.000,A,2943.4060,N,09520.5003,W,0.33,176.09,090516,,,A*72
$GPRMC,152519.000,A,2943.4059,N,09520.5003,W,0.50,179.33,090516,,,A*7A
$GPRMC,152520.000,A,2943.4058,N,09520.5003,W,0.52,181.83,090516,,,A*7F
$GPRMC,152521.000,A,2943.4057,N,09520.5003,W,0.46,180.83,090516,,,A*75
$GPRMC,152522.000,A,2943.4055,N,09520.5003,W,0.45,187.28,090516,,,A*71
$GPRMC,152523.000,A,2943.4054,N,09520.5003,W,0.46,195.50,090516,,,A*7E
$GPRMC,152524.000,A,2943.4053,N,09520.5003,W,0.46,206.45,090516,,,A*73
$GPRMC,152525.000,A,2943.4052,N,09520.5004,W,0.58,204.90,090516,,,A*71
$GPRMC,152526.000,A,2943.4048,N,09520.5005,W,0.70,204.14,090516,,,A*7E
$GPRMC,152527.000,A,2943.4047,N,09520.5006,W,0.62,207.74,090516,,,A*75
$GPRMC,152528.000,A,2943.4047,N,09520.5007,W,0.51,213.35,090516,,,A*7B
$GPRMC,152529.000,A,2943.4046,N,09520.5010,W,0.53,221.75,090516,,,A*7A
$GPRMC,152530.000,A,2943.4045,N,09520.5012,W,0.51,226.40,090516,,,A*70
$GPRMC,152531.000,A,2943.4043,N,09520.5012,W,0.52,219.20,090516,,,A*7E
$GPRMC,152532.000,A,2943.4042,N,09520.5013,W,0.50,219.57,090516,,,A*7F
$GPRMC,152533.000,A,2943.4041,N,09520.5014,W,0.32,217.40,090516,,,A*76
$GPRMC,152534.000,A,2943.4040,N,09520.5015,W,0.30,215.60,090516,,,A*73
$GPRMC,152535.000,A,2943.4039,N,09520.5015,W,0.23,208.48,090516,,,A*78
$GPRMC,152536.000,A,2943.4039,N,09520.5016,W,0.25,206.02,090516,,,A*7E
$GPRMC,152537.000,A,2943.4038,N,09520.5016,W,0.21,205.66,090516,,,A*7B
$GPRMC,152538.000,A,2943.4037,N,09520.5016,W,0.24,191.70,090516,,,A*77
$GPRMC,152539.000,A,2943.4037,N,09520.5016,W,0.08,175.81,090516,,,A*7C
$GPRMC,152540.000,A,2943.4036,N,09520.5016,W,0.07,81.20,090516,,,A*4D
$GPRMC,152541.000,A,2943.4036,N,09520.5016,W,0.10,100.55,090516,,,A*70
$GPRMC,152542.000,A,2943.4036,N,09520.5016,W,0.15,67.33,090516,,,A*46
$GPRMC,152543.000,A,2943.4037,N,09520.5015,W,0.19,59.56,090516,,,A*47
$GPRMC,152544.000,A,2943.4037,N,09520.5015,W,0.09,98.32,090516,,,A*4E
$GPRMC,152545.000,A,2943.4037,N,09520.5015,W,0.16,172.35,090516,,,A*73
$GPRMC,152546.000,A,2943.4036,N,09520.5014,W,0.41,189.30,090516,,,A*73
$GPRMC,152547.000,A,2943.4035,N,09520.5015,W,0.52,183.07,090516,,,A*7C
$GPRMC,152548.000,A,2943.4033,N,09520.5015,W,0.54,181.28,090516,,,A*7C
$GPRMC,152549.000,A,2943.4032,N,09520.5015,W,0.66,185.38,090516,,,A*78
$GPRMC,152550.000,A,2943.4029,N,09520.5014,W,0.69,187.69,090516,,,A*72
$GPRMC,152551.000,A,2943.4025,N,09520.5011,W,0.70,182.57,090516,,,A*7A
$GPRMC,152552.000,A,2943.4017,N,09520.5016,W,0.77,185.55,090516,,,A*7D
$GPRMC,152553.000,A,2943.4010,N,09520.5022,W,0.81,189.06,090516,,,A*7F
$GPRMC,152554.000,A,2943.4004,N,09520.5028,W,0.82,192.73,090516,,,A*7C
$GPRMC,152555.000,A,2943.4002,N,09520.5030,W,0.71,196.93,090516,,,A*74
$GPRMC,152556.000,A,2943.3996,N,09520.5031,W,0.80,194.70,090516,,,A*74
$GPRMC,152557.000,A,2943.3994,N,09520.5028,W,0.71,186.94,090516,,,A*78
$GPRMC,152558.000,A,2943.3990,N,09520.5022,W,0.73,179.19,090516,,,A*7E
$GPRMC,152559.000,A,2943.3985,N,09520.5015,W,0.75,170.06,090516,,,A*7E
$GPRMC,152600.000,A,2943.3975,N,09520.5012,W,0.87,167.77,090516,,,A*74
$GPRMC,152601.000,A,2943.3965,N,09520.5009,W,1.01,169.48,090516,,,A*73
$GPRMC,152602.000,A,2943.3963,N,09520.5006,W,0.94,164.29,090516,,,A*7E
$GPRMC,152603.000,A,2943.3959,N,09520.5002,W,0.86,159.26,090516,,,A*70
$GPRMC,152604.000,A,2943.3955,N,09520.5000,W,0.88,160.75,090516,,,A*7B
$GPRMC,152605.000,A,2943.3947,N,09520.4998,W,0.95,161.47,090516,,,A*7C
$GPRMC,152606.000,A,2943.3938,N,09520.4995,W,1.10,162.19,090516,,,A*7E
$GPRMC,152607.000,A,2943.3929,N,09520.4992,W,1.20,163.88,090516,,,A*72
$GPRMC,152608.000,A,2943.3921,N,09520.4990,W,1.24,165.62,090516,,,A*71
$GPRMC,152609.000,A,2943.3915,N,09520.4989,W,1.22,165.69,090516,,,A*72
$GPRMC,152610.000,A,2943.3907,N,09520.4987,W,1.26,164.73,090516,,,A*79
$GPRMC,152611.000,A,2943.3901,N,09520.4989,W,1.27,167.60,090516,,,A*70
$GPRMC,152612.000,A,2943.3897,N,09520.4990,W,1.20,168.33,090516,,,A*7B
$GPRMC,152613.000,A,2943.3900,N,09520.4990,W,1.01,169.70,090516,,,A*70
$GPRMC,152614.000,A,2943.3903,N,09520.4989,W,0.87,167.99,090516,,,A*7A
$GPRMC,152615.000,A,2943.3898,N,09520.4991,W,0.90,176.81,090516,,,A*7E
$GPRMC,152616.000,A,2943.3894,N,09520.4994,W,0.91,182.61,090516,,,A*70
$GPRMC,152617.000,A,2943.3893,N,09520.4995,W,0.80,179.51,090516,,,A*70
$GPRMC,152618.000,A,2943.3891,N,09520.4995,W,0.75,176.80,090516,,,A*74
$GPRMC,152619.000,A,2943.3889,N,09520.4997,W,0.66,179.90,090516,,,A*72
$GPRMC,152620.000,A,2943.3888,N,09520.4998,W,0.55,177.60,090516,,,A*77
$GPRMC,152621.000,A,2943.3889,N,09520.4997,W,0.45,171.00,090516,,,A*79
$GPRMC,152622.000,A,2943.3886,N,09520.4997,W,0.46,171.91,090516,,,A*7E
$GPRMC,152623.000,A,2943.3880,N,09520.4998,W,0.61,180.43,090516,,,A*72
$GPRMC,152624.000,A,2943.3877,N,09520.4999,W,0.64,187.70,090516,,,A*7E
$GPRMC,152625.000,A,2943.3874,N,09520.5000,W,0.66,189.65,090516,,,A*7C
$GPRMC,152626.000,A,2943.3874,N,09520.4999,W,0.63,190.84,090516,,,A*75
$GPRMC,152627.000,A,2943.3874,N,09520.5000,W,0.59,195.03,090516,,,A*7F
$GPRMC,152628.000,A,2943.3876,N,09520.5001,W,0.47,196.45,090516,,,A*7D
$GPRMC,152629.000,A,2943.3878,N,09520.5002,W,0.41,200.90,090516,,,A*73
$GPRMC,152630.000,A,2943.3879,N,09520.5002,W,0.34,201.24,090516,,,A*76
$GPRMC,152631.000,A,2943.3876,N,09520.5003,W,0.40,198.41,090516,,,A*7A
$GPRMC,152632.000,A,2943.3875,N,09520.5003,W,0.45,198.39,090516,,,A*70
$GPRMC,152633.000,A,2943.3874,N,09520.5003,W,0.38,199.38,090516,,,A*7A
$GPRMC,152634.000,A,2943.3873,N,09520.5004,W,0.17,213.05,090516,,,A*7F
$GPRMC,152635.000,A,2943.3873,N,09520.5004,W,0.11,296.56,090516,,,A*73
$GPRMC,152636.000,A,2943.3873,N,09520.5004,W,0.25,322.39,090516,,,A*70
$GPRMC,152637.000,A,2943.3874,N,09520.5005,W,0.32,304.99,090516,,,A*7F
$GPRMC,152638.000,A,2943.3875,N,09520.5006,W,0.34,317.00,090516,,,A*76
$GPRMC,152639.000,A,2943.3876,N,09520.5006,W,0.42,322.29,090516,,,A*78
$GPRMC,152640.000,A,2943.3877,N,09520.5007,W,0.52,336.72,090516,,,A*7C
$GPRMC,152641.000,A,2943.3878,N,09520.5008,W,0.49,329.53,090516,,,A*7A
$GPRMC,152642.000,A,2943.3879,N,09520.5009,W,0.50,333.06,090516,,,A*7A
$GPRMC,152643.000,A,2943.3881,N,09520.5009,W,0.59,334.95,090516,,,A*78
$GPRMC,152644.000,A,2943.3887,N,09520.5010,W,0.61,335.83,090516,,,A*7C
$GPRMC,152645.000,A,2943.3895,N,09520.5013,W,0.68,332.61,090516,,,A*7F
$GPRMC,152646.000,A,2943.3903,N,09520.5014,W,0.71,325.25,090516,,,A*7B
$GPRMC,152647.000,A,2943.3912,N,09520.5012,W,0.72,331.42,090516,,,A*7B
$GPRMC,152648.000,A,2943.3921,N,09520.5013,W,0.77,331.48,090516,,,A*7A
$GPRMC,152649.000,A,2943.3929,N,09520.5016,W,0.80,326.63,090516,,,A*71
$GPRMC,152650.000,A,2943.3938,N,09520.5019,W,0.91,323.19,090516,,,A*7E
$GPRMC,152651.000,A,2943.3944,N,09520.5023,W,0.93,317.15,090516,,,A*74
$GPRMC,152652.000,A,2943.3952,N,09520.5026,W,0.99,318.38,090516,,,A*7F
$GPRMC,152653.000,A,2943.3960,N,09520.5027,W,1.05,322.59,090516,,,A*74
$GPRMC,152654.000,A,2943.3967,N,09520.5028,W,1.09,325.99,090516,,,A*7C
$GPRMC,152655.000,A,2943.3973,N,09520.5030,W,1.13,326.56,090516,,,A*7A
$GPRMC,152656.000,A,2943.3982,N,09520.5030,W,1.19,331.31,090516,,,A*7A
$GPRMC,152657.000,A,2943.3991,N,09520.5035,W,1.31,330.72,090516,,,A*70
$GPRMC,152658.000,A,2943.3997,N,09520.5038,W,1.32,329.87,090516,,,A*75
$GPRMC,152659.000,A,2943.4005,N,09520.5041,W,1.39,332.05,090516,,,A*74
$GPRMC,152700.000,A,2943.4011,N,09520.5042,W,1.40,331.95,090516,,,A*7B
$GPRMC,152701.000,A,2943.4018,N,09520.5043,W,1.41,332.38,090516,,,A*77
$GPRMC,152702.000,A,2943.4024,N,09520.5041,W,1.39,334.39,090516,,,A*71
$GPRMC,152703.000,A,2943.4031,N,09520.5041,W,1.39,334.22,090516,,,A*7E
$GPRMC,152704.000,A,2943.4036,N,09520.5040,W,1.35,334.85,090516,,,A*7E
$GPRMC,152705.000,A,2943.4041,N,09520.5038,W,1.32,335.19,090516,,,A*73
$GPRMC,152706.000,A,2943.4046,N,09520.5038,W,1.32,334.89,090516,,,A*7F
$GPRMC,152707.000,A,2943.4053,N,09520.5039,W,1.33,333.89,090516,,,A*7D
$GPRMC,152708.000,A,2943.4059,N,09520.5040,W,1.35,335.39,090516,,,A*7D
$GPRMC,152709.000,A,2943.4065,N,09520.5040,W,1.35,338.00,090516,,,A*74
$GPRMC,152710.000,A,2943.4068,N,09520.5043,W,1.30,336.03,090516,,,A*7A
$GPRMC,152711.000,A,2943.4069,N,09520.5045,W,1.21,330.59,090516,,,A*75
$GPRMC,152712.000,A,2943.4077,N,09520.5043,W,1.23,333.63,090516,,,A*77
$GPRMC,152713.000,A,2943.4084,N,09520.5044,W,1.27,333.74,090516,,,A*7F
$GPRMC,152714.000,A,2943.4090,N,09520.5046,W,1.28,331.91,090516,,,A*79
$GPRMC,152715.000,A,2943.4081,N,09520.5037,W,1.04,329.20,090516,,,A*73
$GPRMC,152716.000,A,2943.4073,N,09520.5028,W,0.74,326.25,090516,,,A*7F
$GPRMC,152717.000,A,2943.4066,N,09520.5025,W,0.66,306.51,090516,,,A*75
$GPRMC,152718.000,A,2943.4062,N,09520.5022,W,0.68,300.15,090516,,,A*71
$GPRMC,152719.000,A,2943.4056,N,09520.5020,W,0.62,292.16,090516,,,A*76
$GPRMC,152720.000,A,2943.4057,N,09520.5014,W,0.55,310.73,090516,,,A*76
$GPRMC,152721.000,A,2943.4053,N,09520.5009,W,0.48,315.26,090516,,,A*76
$GPRMC,152722.000,A,2943.4054,N,09520.5004,W,0.44,335.89,090516,,,A*74
$GPRMC,152723.000,A,2943.4048,N,09520.5002,W,0.26,309.24,090516,,,A*72
$GPRMC,152724.000,A,2943.4048,N,09520.5003,W,0.26,280.48,090516,,,A*7E
$GPRMC,152725.000,A,2943.4048,N,09520.5004,W,0.21,262.41,090516,,,A*7A
$GPRMC,152726.000,A,2943.4048,N,09520.5004,W,0.28,241.47,090516,,,A*77
$GPRMC,152727.000,A,2943.4047,N,09520.5005,W,0.26,245.42,090516,,,A*77
$GPRMC,152728.000,A,2943.4047,N,09520.5006,W,0.17,246.45,090516,,,A*7D
$GPRMC,152729.000,A,2943.4047,N,09520.5006,W,0.20,219.03,090516,,,A*70
$GPRMC,152730.000,A,2943.4046,N,09520.5007,W,0.34,198.16,090516,,,A*73
$GPRMC,152731.000,A,2943.4045,N,09520.5007,W,0.40,195.00,090516,,,A*78
$GPRMC,152732.000,A,2943.4044,N,09520.5007,W,0.42,188.95,090516,,,A*78
$GPRMC,152733.000,A,2943.4043,N,09520.5007,W,0.46,185.07,090516,,,A*7C
$GPRMC,152734.000,A,2943.4041,N,09520.5007,W,0.58,185.39,090516,,,A*7B
$GPRMC,152735.000,A,2943.4039,N,09520.5008,W,0.67,185.17,090516,,,A*7A
$GPRMC,152736.000,A,2943.4029,N,09520.5006,W,0.80,185.45,090516,,,A*78
$GPRMC,152737.000,A,2943.4022,N,09520.5008,W,0.89,188.56,090516,,,A*7A
$GPRMC,152738.000,A,2943.4011,N,09520.5011,W,1.08,192.43,090516,,,A*7A
$GPRMC,152739.000,A,2943.4007,N,09520.5012,W,1.01,192.22,090516,,,A*71
$GPRMC,152740.000,A,2943.4004,N,09520.5011,W,0.84,191.71,090516,,,A*76
$GPRMC,152741.000,A,2943.3997,N,09520.5013,W,0.81,192.29,090516,,,A*7A
$GPRMC,152742.000,A,2943.3993,N,09520.5012,W,0.81,188.48,090516,,,A*70
$GPRMC,152743.000,A,2943.3985,N,09520.5011,W,0.90,185.41,090516,,,A*71
$GPRMC,152744.000,A,2943.3981,N,09520.5010,W,0.87,180.26,090516,,,A*71
$GPRMC,152745.000,A,2943.3977,N,09520.5008,W,0.82,177.79,090516,,,A*77
$GPRMC,152746.000,A,2943.3974,N,09520.5006,W,0.76,171.79,090516,,,A*74
$GPRMC,152747.000,A,2943.3972,N,09520.5005,W,0.72,171.50,090516,,,A*7F
$GPRMC,152748.000,A,2943.3973,N,09520.5008,W,0.54,182.19,090516,,,A*79
$GPRMC,152749.000,A,2943.3972,N,09520.5012,W,0.48,200.60,090516,,,A*78
$GPRMC,152750.000,A,2943.3966,N,09520.5016,W,0.60,204.79,090516,,,A*77
$GPRMC,152751.000,A,2943.3969,N,09520.5015,W,0.46,207.19,090516,,,A*7B
$GPRMC,152752.000,A,2943.3973,N,09520.5014,W,0.26,214.95,090516,,,A*72
$GPRMC,152753.000,A,2943.3976,N,09520.5011,W,0.27,204.84,090516,,,A*73
$GPRMC,152754.000,A,2943.3983,N,09520.5006,W,0.08,164.42,090516,,,A*7A
$GPRMC,152755.000,A,2943.3983,N,09520.5005,W,0.15,48.68,090516,,,A*43
$GPRMC,152756.000,A,2943.3983,N,09520.5005,W,0.40,37.45,090516,,,A*47
$GPRMC,152757.000,A,2943.3984,N,09520.5004,W,0.35,45.54,090516,,,A*47
$GPRMC,152758.000,A,2943.3985,N,09520.5003,W,0.24,52.39,090516,,,A*43
$GPRMC,152759.000,A,2943.3985,N,09520.5003,W,0.15,75.66,090516,,,A*4F
$GPRMC,152800.000,A,2943.3985,N,09520.5002,W,0.15,120.84,090516,,,A*70
$GPRMC,152801.000,A,2943.3985,N,09520.5002,W,0.27,80.17,090516,,,A*41
$GPRMC,152802.000,A,2943.3985,N,09520.5001,W,0.33,79.99,090516,,,A*44
$GPRMC,152803.000,A,2943.3985,N,09520.5000,W,0.29,79.91,090516,,,A*47
$GPRMC,152804.000,A,2943.3985,N,09520.4999,W,0.31,89.06,090516,,,A*40
$GPRMC,152805.000,A,2943.3985,N,09520.4998,W,0.32,98.74,090516,,,A*46
$GPRMC,152806.000,A,2943.3985,N,09520.4997,W,0.37,97.91,090516,,,A*4B
$GPRMC,152807.000,A,2943.3985,N,09520.4996,W,0.37,96.38,090516,,,A*49
$GPRMC,152808.000,A,2943.3985,N,09520.4995,W,0.39,83.25,090516,,,A*43
$GPRMC,152809.000,A,2943.3985,N,09520.4993,W,0.33,92.37,090516,,,A*4D