$GPRMC,043709.000,A,2941.4394,N,09537.1506,W,0.19,181.05,080516,,,A*74
$GPRMC,043710.000,A,2941.4394,N,09537.1506,W,0.19,167.38,080516,,,A*7A
$GPRMC,043711.000,A,2941.4393,N,09537.1506,W,0.28,164.50,080516,,,A*73
$GPRMC,043712.000,A,2941.4392,N,09537.1505,W,0.23,181.29,080516,,,A*7C
$GPRMC,043713.000,A,2941.4392,N,09537.1505,W,0.07,202.05,080516,,,A*7D
$GPRMC,043714.000,A,2941.4392,N,09537.1506,W,0.09,94.47,080516,,,A*4C
$GPRMC,043715.000,A,2941.4392,N,09537.1505,W,0.11,34.60,080516,,,A*48
$GPRMC,043716.000,A,2941.4392,N,09537.1505,W,0.10,336.83,080516,,,A*76
$GPRMC,043717.000,A,2941.4392,N,09537.1505,W,0.08,355.65,080516,,,A*73
$GPRMC,043718.000,A,2941.4393,N,09537.1505,W,0.12,239.91,080516,,,A*76
$GPRMC,043719.000,A,2941.4392,N,09537.1506,W,0.07,10.25,080516,,,A*47
$GPRMC,043720.000,A,2941.4393,N,09537.1506,W,0.07,298.39,080516,,,A*73
$GPRMC,043721.000,A,2941.4393,N,09537.1506,W,0.19,32.92,080516,,,A*4E
$GPRMC,043722.000,A,2941.4393,N,09537.1505,W,0.12,352.88,080516,,,A*7B
$GPRMC,043723.000,A,2941.4394,N,09537.1505,W,0.17,304.89,080516,,,A*7A
$GPRMC,043724.000,A,2941.4397,N,09537.1505,W,0.17,342.50,080516,,,A*78
$GPRMC,043725.000,A,2941.4399,N,09537.1504,W,0.16,340.18,080516,,,A*79
$GPRMC,043726.000,A,2941.4402,N,09537.1504,W,0.22,356.39,080516,,,A*7C
$GPRMC,043727.000,A,2941.4405,N,09537.1504,W,0.15,339.96,080516,,,A*72
$GPRMC,043728.000,A,2941.4408,N,09537.1504,W,0.16,339.64,080516,,,A*7E
$GPRMC,043729.000,A,2941.4408,N,09537.1504,W,0.12,284.10,080516,,,A*7F
$GPRMC,043730.000,A,2941.4409,N,09537.1504,W,0.27,299.13,080516,,,A*7F
$GPRMC,043731.000,A,2941.4409,N,09537.1505,W,0.28,274.70,080516,,,A*76
$GPRMC,043732.000,A,2941.4409,N,09537.1506,W,0.16,281.00,080516,,,A*76
$GPRMC,043733.000,A,2941.4409,N,09537.1507,W,0.17,244.08,080516,,,A*76
$GPRMC,043734.000,A,2941.4409,N,09537.1507,W,0.05,63.57,080516,,,A*4F
$GPRMC,043735.000,A,2941.4409,N,09537.1507,W,0.04,92.34,080516,,,A*44
$GPRMC,043736.000,A,2941.4409,N,09537.1507,W,0.17,156.20,080516,,,A*79
$GPRMC,043737.000,A,2941.4409,N,09537.1507,W,0.26,166.02,080516,,,A*79
$GPRMC,043738.000,A,2941.4408,N,09537.1506,W,0.20,115.21,080516,,,A*75
$GPRMC,043739.000,A,2941.4408,N,09537.1506,W,0.10,129.52,080516,,,A*7C
$GPRMC,043740.000,A,2941.4408,N,09537.1505,W,0.16,181.72,080516,,,A*77
$GPRMC,043741.000,A,2941.4407,N,09537.1505,W,0.29,197.80,080516,,,A*7F
$GPRMC,043742.000,A,2941.4406,N,09537.1506,W,0.07,173.04,080516,,,A*74
$GPRMC,043743.000,A,2941.4406,N,09537.1506,W,0.04,146.23,080516,,,A*75
$GPRMC,043744.000,A,2941.4406,N,09537.1506,W,0.02,26.98,080516,,,A*43
$GPRMC,043745.000,A,2941.4406,N,09537.1506,W,0.20,271.26,080516,,,A*77
$GPRMC,043746.000,A,2941.4406,N,09537.1507,W,0.25,272.99,080516,,,A*77
$GPRMC,043747.000,A,2941.4406,N,09537.1507,W,0.24,248.50,080516,,,A*7B
$GPRMC,043748.000,A,2941.4406,N,09537.1508,W,0.20,237.27,080516,,,A*77
$GPRMC,043749.000,A,2941.4406,N,09537.1509,W,0.21,229.25,080516,,,A*7B
$GPRMC,043750.000,A,2941.4405,N,09537.1509,W,0.06,262.00,080516,,,A*7D
$GPRMC,043751.000,A,2941.4405,N,09537.1509,W,0.17,238.88,080516,,,A*73
$GPRMC,043752.000,A,2941.4405,N,09537.1510,W,0.06,248.94,080516,,,A*72
$GPRMC,043753.000,A,2941.4405,N,09537.1510,W,0.24,231.54,080516,,,A*71
$GPRMC,043754.000,A,2941.4405,N,09537.1511,W,0.13,199.84,080516,,,A*7F
$GPRMC,043755.000,A,2941.4404,N,09537.1511,W,0.18,170.31,080516,,,A*7D
$GPRMC,043756.000,A,2941.4404,N,09537.1511,W,0.20,211.58,080516,,,A*7E
$GPRMC,043757.000,A,2941.4403,N,09537.1511,W,0.15,141.88,080516,,,A*75
$GPRMC,043758.000,A,2941.4403,N,09537.1511,W,0.11,79.48,080516,,,A*48
$GPRMC,043759.000,A,2941.4403,N,09537.1510,W,0.14,100.93,080516,,,A*74
$GPRMC,043800.000,A,2941.4403,N,09537.1510,W,0.05,155.72,080516,,,A*78
$GPRMC,043801.000,A,2941.4403,N,09537.1510,W,0.27,175.04,080516,,,A*7A
$GPRMC,043802.000,A,2941.4402,N,09537.1510,W,0.15,195.55,080516,,,A*73
$GPRMC,043803.000,A,2941.4402,N,09537.1510,W,0.22,221.88,080516,,,A*7A
$GPRMC,043804.000,A,2941.4401,N,09537.1510,W,0.03,314.74,080516,,,A*79
$GPRMC,043805.000,A,2941.4401,N,09537.1510,W,0.07,164.35,080516,,,A*7C
$GPRMC,043806.000,A,2941.4401,N,09537.1510,W,0.11,106.59,080516,,,A*76
$GPRMC,043807.000,A,2941.4401,N,09537.1510,W,0.03,35.61,080516,,,A*4E
$GPRMC,043808.000,A,2941.4401,N,09537.1510,W,0.18,105.10,080516,,,A*7F
$GPRMC,043809.000,A,2941.4401,N,09537.1509,W,0.04,186.92,080516,,,A*7A
$GPRMC,043810.000,A,2941.4401,N,09537.1509,W,0.13,156.51,080516,,,A*76
$GPRMC,043811.000,A,2941.4401,N,09537.1509,W,0.06,125.09,080516,,,A*7A
$GPRMC,043812.000,A,2941.4400,N,09537.1509,W,0.19,161.46,080516,,,A*7D
$GPRMC,043813.000,A,2941.4400,N,09537.1509,W,0.19,163.77,080516,,,A*7C
$GPRMC,043814.000,A,2941.4399,N,09537.1509,W,0.21,175.96,080516,,,A*7F
$GPRMC,043815.000,A,2941.4399,N,09537.1509,W,0.20,159.29,080516,,,A*75
$GPRMC,043816.000,A,2941.4398,N,09537.1508,W,0.36,139.81,080516,,,A*75
$GPRMC,043817.000,A,2941.4398,N,09537.1508,W,0.29,156.52,080516,,,A*7D
$GPRMC,043818.000,A,2941.4397,N,09537.1507,W,0.17,175.37,080516,,,A*7D
$GPRMC,043819.000,A,2941.4397,N,09537.1507,W,0.20,169.95,080516,,,A*7D
$GPRMC,043820.000,A,2941.4396,N,09537.1507,W,0.20,189.26,080516,,,A*70
$GPRMC,043821.000,A,2941.4396,N,09537.1507,W,0.14,243.47,080516,,,A*74
$GPRMC,043822.000,A,2941.4395,N,09537.1508,W,0.11,302.54,080516,,,A*78
$GPRMC,043823.000,A,2941.4396,N,09537.1508,W,0.13,297.10,080516,,,A*75
$GPRMC,043824.000,A,2941.4396,N,09537.1509,W,0.18,326.56,080516,,,A*71
$GPRMC,043825.000,A,2941.4396,N,09537.1509,W,0.24,331.93,080516,,,A*70
$GPRMC,043826.000,A,2941.4397,N,09537.1509,W,0.26,308.59,080516,,,A*7C
$GPRMC,043827.000,A,2941.4397,N,09537.1510,W,0.19,323.79,080516,,,A*72
$GPRMC,043828.000,A,2941.4398,N,09537.1510,W,0.14,298.98,080516,,,A*71
$GPRMC,043829.000,A,2941.4398,N,09537.1511,W,0.09,220.99,080516,,,A*7F
$GPRMC,043830.000,A,2941.4398,N,09537.1511,W,0.01,186.05,080516,,,A*75
$GPRMC,043831.000,A,2941.4398,N,09537.1511,W,0.09,23.53,080516,,,A*41
$GPRMC,043832.000,A,2941.4398,N,09537.1511,W,0.10,228.30,080516,,,A*76
$GPRMC,043833.000,A,2941.4398,N,09537.1511,W,0.01,61.10,080516,,,A*4A
$GPRMC,043834.000,A,2941.4398,N,09537.1511,W,0.03,190.63,080516,,,A*74
$GPRMC,043835.000,A,2941.4398,N,09537.1511,W,0.02,24.55,080516,,,A*4F
$GPRMC,043836.000,A,2941.4398,N,09537.1511,W,0.18,316.90,080516,,,A*7C
$GPRMC,043837.000,A,2941.4398,N,09537.1512,W,0.27,310.65,080516,,,A*7E
$GPRMC,043838.000,A,2941.4399,N,09537.1512,W,0.29,315.75,080516,,,A*7A
$GPRMC,043839.000,A,2941.4400,N,09537.1513,W,0.38,333.63,080516,,,A*7E
$GPRMC,043840.000,A,2941.4401,N,09537.1513,W,0.35,299.57,080516,,,A*7A
$GPRMC,043841.000,A,2941.4401,N,09537.1514,W,0.09,275.92,080516,,,A*78
$GPRMC,043842.000,A,2941.4401,N,09537.1515,W,0.10,268.92,080516,,,A*7E
$GPRMC,043843.000,A,2941.4401,N,09537.1515,W,0.15,280.25,080516,,,A*70
$GPRMC,043844.000,A,2941.4401,N,09537.1516,W,0.06,316.98,080516,,,A*7E
$GPRMC,043845.000,A,2941.4401,N,09537.1516,W,0.29,319.69,080516,,,A*73
$GPRMC,043846.000,A,2941.4402,N,09537.1516,W,0.21,342.25,080516,,,A*7D
$GPRMC,043847.000,A,2941.4402,N,09537.1516,W,0.14,279.86,080516,,,A*7A
$GPRMC,043848.000,A,2941.4402,N,09537.1517,W,0.07,238.65,080516,,,A*7E
$GPRMC,043849.000,A,2941.4402,N,09537.1517,W,0.06,237.40,080516,,,A*76
$GPRMC,043850.000,A,2941.4402,N,09537.1517,W,0.04,281.13,080516,,,A*77
$GPRMC,043851.000,A,2941.4402,N,09537.1517,W,0.09,301.62,080516,,,A*74
$GPRMC,043852.000,A,2941.4403,N,09537.1518,W,0.05,54.41,080516,,,A*47
$GPRMC,043853.000,A,2941.4403,N,09537.1518,W,0.05,55.40,080516,,,A*46
$GPRMC,043854.000,A,2941.4403,N,09537.1517,W,0.17,309.51,080516,,,A*77
$GPRMC,043855.000,A,2941.4403,N,09537.1518,W,0.16,353.11,080516,,,A*73
$GPRMC,043856.000,A,2941.4404,N,09537.1518,W,0.17,30.41,080516,,,A*45
$GPRMC,043857.000,A,2941.4404,N,09537.1518,W,0.18,209.35,080516,,,A*70
$GPRMC,043858.000,A,2941.4404,N,09537.1518,W,0.18,203.85,080516,,,A*7E
$GPRMC,043859.000,A,2941.4403,N,09537.1518,W,0.16,187.23,080516,,,A*75
$GPRMC,043900.000,A,2941.4403,N,09537.1518,W,0.09,198.25,080516,,,A*7E
$GPRMC,043901.000,A,2941.4403,N,09537.1519,W,0.09,174.74,080516,,,A*78
$GPRMC,043902.000,A,2941.4402,N,09537.1519,W,0.12,182.24,080516,,,A*7C
$GPRMC,043903.000,A,2941.4402,N,09537.1519,W,0.09,81.41,080516,,,A*46
$GPRMC,043904.000,A,2941.4402,N,09537.1518,W,0.16,114.83,080516,,,A*7D
$GPRMC,043905.000,A,2941.4402,N,09537.1518,W,0.10,114.52,080516,,,A*76
$GPRMC,043906.000,A,2941.4402,N,09537.1518,W,0.27,129.18,080516,,,A*71
$GPRMC,043907.000,A,2941.4401,N,09537.1517,W,0.26,136.54,080516,,,A*7B
$GPRMC,043908.000,A,2941.4401,N,09537.1516,W,0.16,200.73,080516,,,A*75
$GPRMC,043909.000,A,2941.4401,N,09537.1517,W,0.15,255.49,080516,,,A*7F
$GPRMC,043910.000,A,2941.4401,N,09537.1517,W,0.28,220.63,080516,,,A*73
$GPRMC,043911.000,A,2941.4400,N,09537.1518,W,0.09,205.13,080516,,,A*7F
$GPRMC,043912.000,A,2941.4400,N,09537.1518,W,0.31,271.75,080516,,,A*74
$GPRMC,043913.000,A,2941.4400,N,09537.1519,W,0.31,293.60,080516,,,A*7C
$GPRMC,043914.000,A,2941.4400,N,09537.1520,W,0.18,302.83,080516,,,A*7E
$GPRMC,043915.000,A,2941.4401,N,09537.1521,W,0.10,316.08,080516,,,A*71
$GPRMC,043916.000,A,2941.4401,N,09537.1521,W,0.10,297.12,080516,,,A*71
$GPRMC,043917.000,A,2941.4401,N,09537.1521,W,0.09,299.02,080516,,,A*77
$GPRMC,043918.000,A,2941.4401,N,09537.1521,W,0.08,289.50,080516,,,A*7F
$GPRMC,043919.000,A,2941.4401,N,09537.1522,W,0.01,294.94,080516,,,A*70
$GPRMC,043920.000,A,2941.4401,N,09537.1522,W,0.06,152.49,080516,,,A*74
$GPRMC,043921.000,A,2941.4401,N,09537.1522,W,0.06,190.09,080516,,,A*7F
$GPRMC,043922.000,A,2941.4401,N,09537.1522,W,0.08,202.80,080516,,,A*7B
$GPRMC,043923.000,A,2941.4401,N,09537.1522,W,0.17,241.71,080516,,,A*7D
$GPRMC,043924.000,A,2941.4400,N,09537.1522,W,0.18,231.06,080516,,,A*73
$GPRMC,043925.000,A,2941.4400,N,09537.1523,W,0.17,212.85,080516,,,A*76
$GPRMC,043926.000,A,2941.4400,N,09537.1523,W,0.26,244.11,080516,,,A*79
$GPRMC,043927.000,A,2941.4399,N,09537.1524,W,0.27,237.66,080516,,,A*7D
$GPRMC,043928.000,A,2941.4399,N,09537.1525,W,0.06,298.87,080516,,,A*7A
$GPRMC,043929.000,A,2941.4399,N,09537.1525,W,0.17,332.05,080516,,,A*70
$GPRMC,043930.000,A,2941.4400,N,09537.1525,W,0.19,307.82,080516,,,A*78
$GPRMC,043931.000,A,2941.4400,N,09537.1526,W,0.10,350.60,080516,,,A*7D
$GPRMC,043932.000,A,2941.4400,N,09537.1526,W,0.10,29.84,080516,,,A*49
$GPRMC,043933.000,A,2941.4400,N,09537.1526,W,0.09,55.61,080516,,,A*40
$GPRMC,043934.000,A,2941.4401,N,09537.1525,W,0.24,77.43,080516,,,A*4A
$GPRMC,043935.000,A,2941.4401,N,09537.1525,W,0.05,68.42,080516,,,A*47
$GPRMC,043936.000,A,2941.4401,N,09537.1524,W,0.17,115.00,080516,,,A*7B
$GPRMC,043937.000,A,2941.4401,N,09537.1524,W,0.32,131.19,080516,,,A*73
$GPRMC,043938.000,A,2941.4400,N,09537.1523,W,0.32,126.92,080516,,,A*7F
$GPRMC,043939.000,A,2941.4399,N,09537.1522,W,0.25,157.62,080516,,,A*77
$GPRMC,043940.000,A,2941.4399,N,09537.1522,W,0.19,137.80,080516,,,A*7C
$GPRMC,043941.000,A,2941.4398,N,09537.1522,W,0.24,202.71,080516,,,A*79
$GPRMC,043942.000,A,2941.4398,N,09537.1522,W,0.09,125.12,080516,,,A*76
$GPRMC,043943.000,A,2941.4398,N,09537.1522,W,0.12,153.54,080516,,,A*7E
$GPRMC,043944.000,A,2941.4397,N,09537.1522,W,0.09,151.29,080516,,,A*74
$GPRMC,043945.000,A,2941.4397,N,09537.1522,W,0.19,218.78,080516,,,A*7E
$GPRMC,043946.000,A,2941.4397,N,09537.1522,W,0.26,204.48,080516,,,A*7F
$GPRMC,043947.000,A,2941.4396,N,09537.1522,W,0.33,203.77,080516,,,A*70
$GPRMC,043948.000,A,2941.4395,N,09537.1523,W,0.27,200.05,080516,,,A*7E
$GPRMC,043949.000,A,2941.4395,N,09537.1523,W,0.19,183.00,080516,,,A*7F
$GPRMC,043950.000,A,2941.4394,N,09537.1523,W,0.19,159.12,080516,,,A*72
$GPRMC,043951.000,A,2941.4394,N,09537.1523,W,0.16,161.95,080516,,,A*78
$GPRMC,043952.000,A,2941.4393,N,09537.1523,W,0.11,157.34,080516,,,A*75
$GPRMC,043953.000,A,2941.4393,N,09537.1523,W,0.16,184.35,080516,,,A*7C
$GPRMC,043954.000,A,2941.4393,N,09537.1523,W,0.18,143.81,080516,,,A*71
$GPRMC,043955.000,A,2941.4392,N,09537.1522,W,0.25,160.92,080516,,,A*7D
$GPRMC,043956.000,A,2941.4391,N,09537.1522,W,0.09,166.31,080516,,,A*7C
$GPRMC,043957.000,A,2941.4391,N,09537.1522,W,0.03,57.18,080516,,,A*4F
$GPRMC,043958.000,A,2941.4391,N,09537.1522,W,0.04,68.52,080516,,,A*45
$GPRMC,043959.000,A,2941.4391,N,09537.1522,W,0.08,292.20,080516,,,A*7A
$GPRMC,044000.000,A,2941.4391,N,09537.1522,W,0.26,240.81,080516,,,A*70
$GPRMC,044001.000,A,2941.4391,N,09537.1523,W,0.28,252.62,080516,,,A*70
$GPRMC,044002.000,A,2941.4391,N,09537.1524,W,0.35,228.25,080516,,,A*76
$GPRMC,044003.000,A,2941.4390,N,09537.1525,W,0.19,220.73,080516,,,A*72
$GPRMC,044004.000,A,2941.4390,N,09537.1525,W,0.14,186.36,080516,,,A*76
$GPRMC,044005.000,A,2941.4389,N,09537.1525,W,0.07,179.82,080516,,,A*72
$GPRMC,044006.000,A,2941.4389,N,09537.1525,W,0.02,55.31,080516,,,A*43
$GPRMC,044007.000,A,2941.4389,N,09537.1525,W,0.09,168.44,080516,,,A*74
$GPRMC,044008.000,A,2941.4389,N,09537.1525,W,0.23,164.97,080516,,,A*71
$GPRMC,044009.000,A,2941.4388,N,09537.1525,W,0.26,169.69,080516,,,A*78
$GPRMC,044010.000,A,2941.4388,N,09537.1525,W,0.25,171.38,080516,,,A*7E
$GPRMC,044011.000,A,2941.4387,N,09537.1525,W,0.31,205.16,080516,,,A*79
$GPRMC,044012.000,A,2941.4386,N,09537.1525,W,0.23,201.17,080516,,,A*7D
$GPRMC,044013.000,A,2941.4385,N,09537.1525,W,0.33,217.52,080516,,,A*78
$GPRMC,044014.000,A,2941.4385,N,09537.1526,W,0.21,216.05,080516,,,A*7C
$GPRMC,044015.000,A,2941.4384,N,09537.1527,W,0.15,222.83,080516,,,A*73
$GPRMC,044016.000,A,2941.4384,N,09537.1527,W,0.20,235.05,080516,,,A*7E
$GPRMC,044017.000,A,2941.4384,N,09537.1527,W,0.18,233.60,080516,,,A*71
$GPRMC,044018.000,A,2941.4383,N,09537.1528,W,0.14,178.19,080516,,,A*78
$GPRMC,044019.000,A,2941.4383,N,09537.1528,W,0.09,145.94,080516,,,A*7E
$GPRMC,044020.000,A,2941.4383,N,09537.1528,W,0.07,163.58,080516,,,A*7E
$GPRMC,044021.000,A,2941.4383,N,09537.1528,W,0.14,218.47,080516,,,A*7C
$GPRMC,044022.000,A,2941.4382,N,09537.1528,W,0.19,194.66,080516,,,A*77
$GPRMC,044023.000,A,2941.4382,N,09537.1528,W,0.28,188.66,080516,,,A*79
$GPRMC,044024.000,A,2941.4381,N,09537.1528,W,0.21,161.38,080516,,,A*78
$GPRMC,044025.000,A,2941.4380,N,09537.1528,W,0.34,152.58,080516,,,A*7A
$GPRMC,044026.000,A,2941.4380,N,09537.1527,W,0.17,138.99,080516,,,A*76
$GPRMC,044027.000,A,2941.4379,N,09537.1527,W,0.14,121.05,080516,,,A*7F
$GPRMC,044028.000,A,2941.4379,N,09537.1527,W,0.15,120.21,080516,,,A*76
$GPRMC,044029.000,A,2941.4379,N,09537.1526,W,0.19,158.70,080516,,,A*71
$GPRMC,044030.000,A,2941.4378,N,09537.1526,W,0.25,172.75,080516,,,A*7A
$GPRMC,044031.000,A,2941.4378,N,09537.1526,W,0.31,179.25,080516,,,A*70
$GPRMC,044032.000,A,2941.4377,N,09537.1526,W,0.46,179.79,080516,,,A*75
$GPRMC,044033.000,A,2941.4376,N,09537.1526,W,0.32,156.27,080516,,,A*70
$GPRMC,044034.000,A,2941.4375,N,09537.1525,W,0.20,155.67,080516,,,A*73
$GPRMC,044035.000,A,2941.4374,N,09537.1525,W,0.19,117.08,080516,,,A*76
$GPRMC,044036.000,A,2941.4374,N,09537.1524,W,0.12,132.24,080516,,,A*76
$GPRMC,044037.000,A,2941.4374,N,09537.1524,W,0.08,23.69,080516,,,A*44
$GPRMC,044038.000,A,2941.4374,N,09537.1524,W,0.16,310.01,080516,,,A*79
$GPRMC,044039.000,A,2941.4375,N,09537.1524,W,0.15,337.48,080516,,,A*72
$GPRMC,044040.000,A,2941.4375,N,09537.1524,W,0.05,345.55,080516,,,A*74
$GPRMC,044041.000,A,2941.4375,N,09537.1524,W,0.10,147.57,080516,,,A*73
$GPRMC,044042.000,A,2941.4375,N,09537.1524,W,0.26,196.10,080516,,,A*7A
$GPRMC,044043.000,A,2941.4374,N,09537.1524,W,0.11,214.71,080516,,,A*70
$GPRMC,044044.000,A,2941.4374,N,09537.1525,W,0.15,216.57,080516,,,A*74
$GPRMC,044045.000,A,2941.4374,N,09537.1525,W,0.05,232.95,080516,,,A*7C
$GPRMC,044046.000,A,2941.4373,N,09537.1525,W,0.05,225.59,080516,,,A*7E
$GPRMC,044047.000,A,2941.4373,N,09537.1525,W,0.06,182.61,080516,,,A*79
$GPRMC,044048.000,A,2941.4373,N,09537.1525,W,0.14,284.70,080516,,,A*70
$GPRMC,044049.000,A,2941.4373,N,09537.1526,W,0.20,302.85,080516,,,A*70
$GPRMC,044050.000,A,2941.4374,N,09537.1526,W,0.20,327.95,080516,,,A*79
$GPRMC,044051.000,A,2941.4374,N,09537.1526,W,0.23,337.10,080516,,,A*77
$GPRMC,044052.000,A,2941.4375,N,09537.1527,W,0.18,303.70,080516,,,A*7D
$GPRMC,044053.000,A,2941.4375,N,09537.1527,W,0.12,283.68,080516,,,A*76
$GPRMC,044054.000,A,2941.4375,N,09537.1528,W,0.26,214.38,080516,,,A*72
$GPRMC,044055.000,A,2941.4374,N,09537.1528,W,0.25,224.40,080516,,,A*7D
$GPRMC,044056.000,A,2941.4374,N,09537.1529,W,0.19,196.87,080516,,,A*71
$GPRMC,044057.000,A,2941.4373,N,09537.1529,W,0.40,183.53,080516,,,A*76
$GPRMC,044058.000,A,2941.4372,N,09537.1529,W,0.51,180.89,080516,,,A*7C
$GPRMC,044059.000,A,2941.4371,N,09537.1529,W,0.27,188.36,080516,,,A*73
$GPRMC,044100.000,A,2941.4370,N,09537.1529,W,0.18,178.56,080516,,,A*7A
$GPRMC,044101.000,A,2941.4369,N,09537.1529,W,0.24,175.15,080516,,,A*76
$GPRMC,044102.000,A,2941.4369,N,09537.1529,W,0.28,134.86,080516,,,A*76
$GPRMC,044103.000,A,2941.4368,N,09537.1528,W,0.20,126.21,080516,,,A*71
$GPRMC,044104.000,A,2941.4368,N,09537.1528,W,0.18,189.63,080516,,,A*7E
$GPRMC,044105.000,A,2941.4368,N,09537.1528,W,0.28,226.37,080516,,,A*7B
$GPRMC,044106.000,A,2941.4367,N,09537.1528,W,0.20,207.17,080516,,,A*7E
$GPRMC,044107.000,A,2941.4367,N,09537.1529,W,0.07,211.14,080516,,,A*7F
$GPRMC,044108.000,A,2941.4367,N,09537.1529,W,0.02,242.94,080516,,,A*7B
$GPRMC,044109.000,A,2941.4367,N,09537.1529,W,0.05,328.12,080516,,,A*7E
$GPRMC,044110.000,A,2941.4367,N,09537.1529,W,0.12,45.56,080516,,,A*48
$GPRMC,044111.000,A,2941.4367,N,09537.1529,W,0.16,185.13,080516,,,A*71
$GPRMC,044112.000,A,2941.4367,N,09537.1529,W,0.18,152.77,080516,,,A*74
$GPRMC,044113.000,A,2941.4367,N,09537.1529,W,0.15,138.16,080516,,,A*73
$GPRMC,044114.000,A,2941.4367,N,09537.1528,W,0.07,16.79,080516,,,A*42
$GPRMC,044115.000,A,2941.4367,N,09537.1528,W,0.14,250.06,080516,,,A*79
$GPRMC,044116.000,A,2941.4367,N,09537.1529,W,0.12,215.41,080516,,,A*7F
$GPRMC,044117.000,A,2941.4367,N,09537.1529,W,0.08,311.30,080516,,,A*76
$GPRMC,044118.000,A,2941.4367,N,09537.1529,W,0.31,274.78,080516,,,A*7D
$GPRMC,044119.000,A,2941.4367,N,09537.1530,W,0.17,298.00,080516,,,A*7D
$GPRMC,044120.000,A,2941.4367,N,09537.1530,W,0.14,299.84,080516,,,A*79
$GPRMC,044121.000,A,2941.4368,N,09537.1531,W,0.13,349.79,080516,,,A*7F
$GPRMC,044122.000,A,2941.4368,N,09537.1531,W,0.07,276.13,080516,,,A*78
$GPRMC,044123.000,A,2941.4368,N,09537.1531,W,0.01,211.02,080516,,,A*7E
$GPRMC,044124.000,A,2941.4368,N,09537.1531,W,0.13,271.89,080516,,,A*7F
$GPRMC,044125.000,A,2941.4368,N,09537.1531,W,0.15,294.14,080516,,,A*77
$GPRMC,044126.000,A,2941.4368,N,09537.1532,W,0.11,292.03,080516,,,A*73
$GPRMC,044127.000,A,2941.4369,N,09537.1532,W,0.13,289.12,080516,,,A*7B
$GPRMC,044128.000,A,2941.4374,N,09537.1531,W,0.18,314.92,080516,,,A*7D
$GPRMC,044129.000,A,2941.4375,N,09537.1529,W,0.10,301.49,080516,,,A*7E
$GPRMC,044130.000,A,2941.4375,N,09537.1528,W,0.20,244.71,080516,,,A*7F
$GPRMC,044131.000,A,2941.4376,N,09537.1527,W,0.13,276.82,080516,,,A*7F
$GPRMC,044132.000,A,2941.4377,N,09537.1527,W,0.20,261.04,080516,,,A*75
$GPRMC,044133.000,A,2941.4376,N,09537.1528,W,0.23,241.94,080516,,,A*72
$GPRMC,044134.000,A,2941.4376,N,09537.1528,W,0.17,240.40,080516,,,A*7A
$GPRMC,044135.000,A,2941.4376,N,09537.1529,W,0.07,281.34,080516,,,A*75
$GPRMC,044136.000,A,2941.4376,N,09537.1529,W,0.07,30.18,080516,,,A*40
$GPRMC,044137.000,A,2941.4376,N,09537.1529,W,0.08,197.81,080516,,,A*72
$GPRMC,044138.000,A,2941.4376,N,09537.1529,W,0.06,15.46,080516,,,A*43
$GPRMC,044139.000,A,2941.4376,N,09537.1529,W,0.06,97.55,080516,,,A*4A
$GPRMC,044140.000,A,2941.4376,N,09537.1529,W,0.23,145.13,080516,,,A*7F
$GPRMC,044141.000,A,2941.4376,N,09537.1528,W,0.12,176.00,080516,,,A*7F
$GPRMC,044142.000,A,2941.4375,N,09537.1528,W,0.17,85.67,080516,,,A*46
$GPRMC,044143.000,A,2941.4375,N,09537.1528,W,0.07,235.57,080516,,,A*7C
$GPRMC,044144.000,A,2941.4375,N,09537.1528,W,0.15,355.53,080516,,,A*7B
$GPRMC,044145.000,A,2941.4376,N,09537.1528,W,0.16,52.24,080516,,,A*4E
$GPRMC,044146.000,A,2941.4376,N,09537.1527,W,0.19,166.63,080516,,,A*78
$GPRMC,044147.000,A,2941.4376,N,09537.1527,W,0.20,163.35,080516,,,A*75
$GPRMC,044148.000,A,2941.4375,N,09537.1527,W,0.08,185.98,080516,,,A*7C
$GPRMC,044149.000,A,2941.4375,N,09537.1527,W,0.15,208.64,080516,,,A*74
$GPRMC,044150.000,A,2941.4375,N,09537.1527,W,0.06,237.18,080516,,,A*79
$GPRMC,044151.000,A,2941.4374,N,09537.1527,W,0.26,189.31,080516,,,A*76
$GPRMC,044152.000,A,2941.4374,N,09537.1528,W,0.23,177.88,080516,,,A*7C
$GPRMC,044153.000,A,2941.4373,N,09537.1528,W,0.20,200.60,080516,,,A*7C
$GPRMC,044154.000,A,2941.4373,N,09537.1528,W,0.22,176.40,080516,,,A*79
$GPRMC,044155.000,A,2941.4372,N,09537.1528,W,0.25,178.08,080516,,,A*7C
$GPRMC,044156.000,A,2941.4371,N,09537.1528,W,0.18,158.88,080516,,,A*78
$GPRMC,044157.000,A,2941.4371,N,09537.1527,W,0.17,145.49,080516,,,A*78
$GPRMC,044158.000,A,2941.4370,N,09537.1527,W,0.10,68.84,080516,,,A*4E
$GPRMC,044159.000,A,2941.4370,N,09537.1527,W,0.05,125.27,080516,,,A*7A
$GPRMC,044200.000,A,2941.4370,N,09537.1527,W,0.15,202.18,080516,,,A*7E
$GPRMC,044201.000,A,2941.4370,N,09537.1527,W,0.26,264.55,080516,,,A*76
$GPRMC,044202.000,A,2941.4370,N,09537.1528,W,0.22,250.48,080516,,,A*75
$GPRMC,044203.000,A,2941.4376,N,09537.1526,W,0.16,241.81,080516,,,A*7E
$GPRMC,044204.000,A,2941.4381,N,09537.1524,W,0.07,217.86,080516,,,A*77
$GPRMC,044205.000,A,2941.4385,N,09537.1523,W,0.05,172.49,080516,,,A*74
$GPRMC,044206.000,A,2941.4389,N,09537.1524,W,0.09,255.46,080516,,,A*79
$GPRMC,044207.000,A,2941.4391,N,09537.1523,W,0.13,238.98,080516,,,A*75
$GPRMC,044208.000,A,2941.4393,N,09537.1522,W,0.07,281.54,080516,,,A*7E
$GPRMC,044209.000,A,2941.4396,N,09537.1522,W,0.10,277.43,080516,,,A*73
$GPRMC,044210.000,A,2941.4396,N,09537.1522,W,0.12,219.76,080516,,,A*77
$GPRMC,044211.000,A,2941.4395,N,09537.1522,W,0.17,187.84,080516,,,A*79
$GPRMC,044212.000,A,2941.4395,N,09537.1522,W,0.06,200.74,080516,,,A*79
$GPRMC,044213.000,A,2941.4395,N,09537.1522,W,0.10,224.84,080516,,,A*76
$GPRMC,044214.000,A,2941.4395,N,09537.1523,W,0.06,8.70,080516,,,A*70
$GPRMC,044215.000,A,2941.4395,N,09537.1523,W,0.14,4.52,080516,,,A*7E
$GPRMC,044216.000,A,2941.4395,N,09537.1523,W,0.16,340.54,080516,,,A*7A
$GPRMC,044217.000,A,2941.4396,N,09537.1523,W,0.10,336.84,080516,,,A*72
$GPRMC,044218.000,A,2941.4396,N,09537.1523,W,0.08,58.69,080516,,,A*4C
$GPRMC,044219.000,A,2941.4396,N,09537.1523,W,0.09,76.32,080516,,,A*4E
$GPRMC,044220.000,A,2941.4396,N,09537.1522,W,0.21,174.90,080516,,,A*74
$GPRMC,044221.000,A,2941.4396,N,09537.1522,W,0.20,188.69,080516,,,A*71
$GPRMC,044222.000,A,2941.4395,N,09537.1522,W,0.09,159.80,080516,,,A*71
$GPRMC,044223.000,A,2941.4395,N,09537.1522,W,0.26,205.72,080516,,,A*7A
$GPRMC,044224.000,A,2941.4394,N,09537.1523,W,0.26,230.40,080516,,,A*7A
$GPRMC,044225.000,A,2941.4394,N,09537.1523,W,0.23,227.55,080516,,,A*7C
$GPRMC,044226.000,A,2941.4393,N,09537.1524,W,0.03,209.93,080516,,,A*7B
$GPRMC,044227.000,A,2941.4393,N,09537.1524,W,0.25,195.94,080516,,,A*7F
$GPRMC,044228.000,A,2941.4393,N,09537.1524,W,0.26,220.55,080516,,,A*73
$GPRMC,044229.000,A,2941.4392,N,09537.1525,W,0.21,205.96,080516,,,A*7D
$GPRMC,044230.000,A,2941.4392,N,09537.1525,W,0.19,205.79,080516,,,A*7F
$GPRMC,044231.000,A,2941.4391,N,09537.1525,W,0.11,244.08,080516,,,A*76
$GPRMC,044232.000,A,2941.4391,N,09537.1526,W,0.15,182.37,080516,,,A*77
$GPRMC,044233.000,A,2941.4391,N,09537.1526,W,0.08,262.22,080516,,,A*73
$GPRMC,044234.000,A,2941.4391,N,09537.1526,W,0.05,3.13,080516,,,A*7E
$GPRMC,044235.000,A,2941.4391,N,09537.1526,W,0.20,347.70,080516,,,A*7E
$GPRMC,044236.000,A,2941.4392,N,09537.1526,W,0.26,324.33,080516,,,A*7A
$GPRMC,044237.000,A,2941.4392,N,09537.1526,W,0.15,353.88,080516,,,A*7B
$GPRMC,044238.000,A,2941.4393,N,09537.1526,W,0.08,319.60,080516,,,A*71
$GPRMC,044239.000,A,2941.4393,N,09537.1527,W,0.13,17.03,080516,,,A*43
$GPRMC,044240.000,A,2941.4393,N,09537.1526,W,0.04,253.84,080516,,,A*77
$GPRMC,044241.000,A,2941.4393,N,09537.1527,W,0.21,263.26,080516,,,A*7B
$GPRMC,044242.000,A,2941.4393,N,09537.1527,W,0.24,222.74,080516,,,A*7F
$GPRMC,044243.000,A,2941.4393,N,09537.1528,W,0.12,222.19,080516,,,A*7F
$GPRMC,044244.000,A,2941.4392,N,09537.1528,W,0.14,219.49,080516,,,A*72
$GPRMC,044245.000,A,2941.4392,N,09537.1528,W,0.13,255.09,080516,,,A*78
$GPRMC,044246.000,A,2941.4392,N,09537.1529,W,0.14,227.30,080516,,,A*72
$GPRMC,044247.000,A,2941.4392,N,09537.1529,W,0.01,266.67,080516,,,A*70
$GPRMC,044248.000,A,2941.4392,N,09537.1529,W,0.03,226.63,080516,,,A*7D
$GPRMC,044249.000,A,2941.4392,N,09537.1529,W,0.02,33.63,080516,,,A*4B
$GPRMC,044250.000,A,2941.4392,N,09537.1529,W,0.12,323.61,080516,,,A*72
$GPRMC,044251.000,A,2941.4392,N,09537.1529,W,0.11,302.34,080516,,,A*73
$GPRMC,044252.000,A,2941.4392,N,09537.1530,W,0.17,329.31,080516,,,A*72
$GPRMC,044253.000,A,2941.4393,N,09537.1530,W,0.55,339.40,080516,,,A*73
$GPRMC,044254.000,A,2941.4394,N,09537.1531,W,0.33,335.82,080516,,,A*70
$GPRMC,044255.000,A,2941.4395,N,09537.1531,W,0.46,299.95,080516,,,A*73
$GPRMC,044256.000,A,2941.4396,N,09537.1532,W,0.31,300.77,080516,,,A*7D
$GPRMC,044257.000,A,2941.4397,N,09537.1533,W,0.19,297.66,080516,,,A*79
$GPRMC,044258.000,A,2941.4397,N,09537.1534,W,0.20,241.40,080516,,,A*74
$GPRMC,044259.000,A,2941.4397,N,09537.1534,W,0.17,265.09,080516,,,A*7A
$GPRMC,044300.000,A,2941.4396,N,09537.1535,W,0.18,264.27,080516,,,A*75
$GPRMC,044301.000,A,2941.4396,N,09537.1536,W,0.22,166.07,080516,,,A*7D
$GPRMC,044302.000,A,2941.4396,N,09537.1535,W,0.22,136.90,080516,,,A*76
$GPRMC,044303.000,A,2941.4396,N,09537.1535,W,0.20,160.05,080516,,,A*7A
$GPRMC,044304.000,A,2941.4395,N,09537.1535,W,0.30,154.04,080516,,,A*79
$GPRMC,044305.000,A,2941.4394,N,09537.1534,W,0.20,143.64,080516,,,A*79
$GPRMC,044306.000,A,2941.4396,N,09537.1531,W,0.01,124.69,080516,,,A*72
$GPRMC,044307.000,A,2941.4404,N,09537.1529,W,0.15,359.98,080516,,,A*75
$GPRMC,044308.000,A,2941.4409,N,09537.1526,W,0.31,354.48,080516,,,A*7E
$GPRMC,044309.000,A,2941.4415,N,09537.1525,W,0.21,4.47,080516,,,A*79
$GPRMC,044310.000,A,2941.4418,N,09537.1522,W,0.04,11.56,080516,,,A*48
$GPRMC,044311.000,A,2941.4418,N,09537.1522,W,0.11,272.45,080516,,,A*78
$GPRMC,044312.000,A,2941.4418,N,09537.1523,W,0.27,251.78,080516,,,A*70
$GPRMC,044313.000,A,2941.4418,N,09537.1523,W,0.15,269.17,080516,,,A*72
$GPRMC,044314.000,A,2941.4418,N,09537.1524,W,0.10,269.74,080516,,,A*72
$GPRMC,044315.000,A,2941.4418,N,09537.1524,W,0.12,247.33,080516,,,A*7E
$GPRMC,044316.000,A,2941.4418,N,09537.1524,W,0.21,299.48,080516,,,A*72
$GPRMC,044317.000,A,2941.4419,N,09537.1525,W,0.34,321.04,080516,,,A*7D
$GPRMC,044318.000,A,2941.4419,N,09537.1526,W,0.16,256.74,080516,,,A*77
$GPRMC,044319.000,A,2941.4419,N,09537.1526,W,0.08,295.31,080516,,,A*77
$GPRMC,044320.000,A,2941.4419,N,09537.1526,W,0.08,174.48,080516,,,A*7F
$GPRMC,044321.000,A,2941.4419,N,09537.1526,W,0.09,267.41,080516,,,A*77
$GPRMC,044322.000,A,2941.4419,N,09537.1527,W,0.10,274.48,080516,,,A*76
$GPRMC,044323.000,A,2941.4419,N,09537.1527,W,0.11,304.15,080516,,,A*78
$GPRMC,044324.000,A,2941.4419,N,09537.1527,W,0.03,354.04,080516,,,A*79
$GPRMC,044325.000,A,2941.4419,N,09537.1527,W,0.03,181.27,080516,,,A*73
$GPRMC,044326.000,A,2941.4419,N,09537.1527,W,0.05,71.96,080516,,,A*42
$GPRMC,044327.000,A,2941.4420,N,09537.1527,W,0.10,82.06,080516,,,A*48
$GPRMC,044328.000,A,2941.4420,N,09537.1527,W,0.08,89.08,080516,,,A*4B
$GPRMC,044329.000,A,2941.4420,N,09537.1526,W,0.16,81.15,080516,,,A*40
$GPRMC,044330.000,A,2941.4420,N,09537.1526,W,0.11,21.76,080516,,,A*40
$GPRMC,044331.000,A,2941.4420,N,09537.1526,W,0.13,332.18,080516,,,A*7A
$GPRMC,044332.000,A,2941.4420,N,09537.1526,W,0.08,330.16,080516,,,A*7F
$GPRMC,044333.000,A,2941.4421,N,09537.1526,W,0.16,337.76,080516,,,A*71
$GPRMC,044334.000,A,2941.4421,N,09537.1526,W,0.09,314.96,080516,,,A*77
$GPRMC,044335.000,A,2941.4421,N,09537.1527,W,0.05,282.52,080516,,,A*7D
$GPRMC,044336.000,A,2941.4421,N,09537.1527,W,0.22,325.72,080516,,,A*75
$GPRMC,044337.000,A,2941.4422,N,09537.1527,W,0.25,356.97,080516,,,A*7F
$GPRMC,044338.000,A,2941.4423,N,09537.1527,W,0.22,331.78,080516,,,A*76
$GPRMC,044339.000,A,2941.4426,N,09537.1527,W,0.15,328.41,080516,,,A*74
$GPRMC,044340.000,A,2941.4430,N,09537.1528,W,0.14,359.39,080516,,,A*7A
$GPRMC,044341.000,A,2941.4433,N,09537.1528,W,0.25,23.71,080516,,,A*48
$GPRMC,044342.000,A,2941.4436,N,09537.1528,W,0.09,355.31,080516,,,A*76
$GPRMC,044343.000,A,2941.4435,N,09537.1529,W,0.02,271.88,080516,,,A*7B
$GPRMC,044344.000,A,2941.4435,N,09537.1529,W,0.06,320.76,080516,,,A*7C
$GPRMC,044345.000,A,2941.4435,N,09537.1529,W,0.04,30.29,080516,,,A*47
$GPRMC,044346.000,A,2941.4438,N,09537.1530,W,0.17,337.52,080516,,,A*7B
$GPRMC,044347.000,A,2941.4440,N,09537.1531,W,0.21,352.45,080516,,,A*74
$GPRMC,044348.000,A,2941.4441,N,09537.1531,W,0.29,313.64,080516,,,A*74
$GPRMC,044349.000,A,2941.4440,N,09537.1530,W,0.10,305.39,080516,,,A*70
$GPRMC,044350.000,A,2941.4440,N,09537.1529,W,0.05,222.67,080516,,,A*7B
$GPRMC,044351.000,A,2941.4439,N,09537.1529,W,0.12,234.70,080516,,,A*73
$GPRMC,044352.000,A,2941.4439,N,09537.1529,W,0.17,246.82,080516,,,A*7D
$GPRMC,044353.000,A,2941.4439,N,09537.1530,W,0.08,244.98,080516,,,A*73
$GPRMC,044354.000,A,2941.4439,N,09537.1530,W,0.10,165.59,080516,,,A*70
$GPRMC,044355.000,A,2941.4439,N,09537.1530,W,0.16,149.41,080516,,,A*70
$GPRMC,044356.000,A,2941.4438,N,09537.1529,W,0.15,141.94,080516,,,A*79
$GPRMC,044357.000,A,2941.4438,N,09537.1529,W,0.10,153.43,080516,,,A*74
$GPRMC,044358.000,A,2941.4438,N,09537.1529,W,0.09,169.21,080516,,,A*7E
$GPRMC,044359.000,A,2941.4438,N,09537.1529,W,0.15,221.63,080516,,,A*7B
$GPRMC,044400.000,A,2941.4437,N,09537.1529,W,0.21,217.29,080516,,,A*73
$GPRMC,044401.000,A,2941.4437,N,09537.1530,W,0.15,223.22,080516,,,A*71
$GPRMC,044402.000,A,2941.4437,N,09537.1530,W,0.06,323.77,080516,,,A*71
$GPRMC,044403.000,A,2941.4437,N,09537.1530,W,0.10,316.00,080516,,,A*71
$GPRMC,044404.000,A,2941.4437,N,09537.1530,W,0.06,158.22,080516,,,A*79
$GPRMC,044405.000,A,2941.4437,N,09537.1530,W,0.07,70.20,080516,,,A*40
$GPRMC,044406.000,A,2941.4437,N,09537.1530,W,0.10,345.10,080516,,,A*73
$GPRMC,044407.000,A,2941.4437,N,09537.1530,W,0.06,242.70,080516,,,A*75
$GPRMC,044408.000,A,2941.4437,N,09537.1530,W,0.12,262.70,080516,,,A*7D
$GPRMC,044409.000,A,2941.4437,N,09537.1531,W,0.14,247.32,080516,,,A*7A
$GPRMC,044410.000,A,2941.4437,N,09537.1531,W,0.05,327.85,080516,,,A*79
$GPRMC,044411.000,A,2941.4437,N,09537.1531,W,0.19,352.63,080516,,,A*7F
$GPRMC,044412.000,A,2941.4438,N,09537.1531,W,0.18,343.96,080516,,,A*78
$GPRMC,044413.000,A,2941.4438,N,09537.1531,W,0.18,320.19,080516,,,A*7B
$GPRMC,044414.000,A,2941.4439,N,09537.1532,W,0.15,253.87,080516,,,A*71
$GPRMC,044415.000,A,2941.4438,N,09537.1532,W,0.14,352.00,080516,,,A*7F
$GPRMC,044416.000,A,2941.4439,N,09537.1532,W,0.15,341.65,080516,,,A*7D
$GPRMC,044417.000,A,2941.4439,N,09537.1532,W,0.06,327.89,080516,,,A*7C
$GPRMC,044418.000,A,2941.4439,N,09537.1532,W,0.03,276.06,080516,,,A*74
$GPRMC,044419.000,A,2941.4439,N,09537.1532,W,0.08,292.04,080516,,,A*76
$GPRMC,044420.000,A,2941.4440,N,09537.1533,W,0.10,358.10,080516,,,A*78
$GPRMC,044421.000,A,2941.4440,N,09537.1533,W,0.13,37.28,080516,,,A*4B
$GPRMC,044422.000,A,2941.4440,N,09537.1532,W,0.09,125.70,080516,,,A*7D
$GPRMC,044423.000,A,2941.4440,N,09537.1532,W,0.07,175.55,080516,,,A*70
$GPRMC,044424.000,A,2941.4440,N,09537.1532,W,0.10,208.47,080516,,,A*7B
$GPRMC,044425.000,A,2941.4439,N,09537.1532,W,0.19,330.22,080516,,,A*74
$GPRMC,044426.000,A,2941.4440,N,09537.1533,W,0.21,317.31,080516,,,A*74
$GPRMC,044427.000,A,2941.4440,N,09537.1533,W,0.20,317.40,080516,,,A*72
$GPRMC,044428.000,A,2941.4441,N,09537.1533,W,0.17,324.08,080516,,,A*74
$GPRMC,044429.000,A,2941.4441,N,09537.1534,W,0.01,296.78,080516,,,A*7A
$GPRMC,044430.000,A,2941.4441,N,09537.1534,W,0.03,320.94,080516,,,A*7E
$GPRMC,044431.000,A,2941.4441,N,09537.1534,W,0.01,190.66,080516,,,A*79
$GPRMC,044432.000,A,2941.4441,N,09537.1534,W,0.00,119.49,080516,,,A*77
$GPRMC,044433.000,A,2941.4441,N,09537.1534,W,0.03,340.30,080516,,,A*75
$GPRMC,044434.000,A,2941.4442,N,09537.1534,W,0.02,181.06,080516,,,A*7A
$GPRMC,044435.000,A,2941.4441,N,09537.1534,W,0.01,8.43,080516,,,A*7A
$GPRMC,044436.000,A,2941.4442,N,09537.1534,W,0.00,36.85,080516,,,A*4C
$GPRMC,044437.000,A,2941.4442,N,09537.1534,W,0.01,316.96,080516,,,A*7F
$GPRMC,044438.000,A,2941.4442,N,09537.1534,W,0.06,347.13,080516,,,A*7E
$GPRMC,044439.000,A,2941.4442,N,09537.1534,W,0.09,328.36,080516,,,A*7E
$GPRMC,044440.000,A,2941.4442,N,09537.1534,W,0.10,308.13,080516,,,A*7D
$GPRMC,044441.000,A,2941.4442,N,09537.1534,W,0.09,334.16,080516,,,A*7E
$GPRMC,044442.000,A,2941.4442,N,09537.1534,W,0.03,354.78,080516,,,A*79
$GPRMC,044443.000,A,2941.4443,N,09537.1534,W,0.03,313.33,080516,,,A*75
$GPRMC,044444.000,A,2941.4443,N,09537.1534,W,0.07,135.78,080516,,,A*7F
$GPRMC,044445.000,A,2941.4442,N,09537.1534,W,0.08,324.38,080516,,,A*76
$GPRMC,044446.000,A,2941.4443,N,09537.1534,W,0.02,18.62,080516,,,A*4D
$GPRMC,044447.000,A,2941.4443,N,09537.1534,W,0.10,139.51,080516,,,A*7D
$GPRMC,044448.000,A,2941.4442,N,09537.1534,W,0.10,309.22,080516,,,A*76
$GPRMC,044449.000,A,2941.4443,N,09537.1534,W,0.02,41.34,080516,,,A*4D
$GPRMC,044450.000,A,2941.4443,N,09537.1534,W,0.04,152.05,080516,,,A*72
$GPRMC,044451.000,A,2941.4443,N,09537.1534,W,0.01,173.97,080516,,,A*7E
$GPRMC,044452.000,A,2941.4443,N,09537.1534,W,0.02,350.65,080516,,,A*70
$GPRMC,044453.000,A,2941.4443,N,09537.1534,W,0.02,316.70,080516,,,A*77
$GPRMC,044454.000,A,2941.4443,N,09537.1534,W,0.02,300.69,080516,,,A*7F
$GPRMC,044455.000,A,2941.4443,N,09537.1534,W,0.02,137.12,080516,,,A*74
$GPRMC,044456.000,A,2941.4443,N,09537.1534,W,0.01,320.79,080516,,,A*7D
$GPRMC,044457.000,A,2941.4443,N,09537.1534,W,0.01,30.54,080516,,,A*41
$GPRMC,044458.000,A,2941.4443,N,09537.1534,W,0.00,304.51,080516,,,A*7E
$GPRMC,044459.000,A,2941.4443,N,09537.1534,W,0.02,349.78,080516,,,A*7F
$GPRMC,044500.000,A,2941.4443,N,09537.1534,W,0.01,184.45,080516,,,A*7C
$GPRMC,044501.000,A,2941.4443,N,09537.1534,W,0.01,99.25,080516,,,A*46
$GPRMC,044502.000,A,2941.4443,N,09537.1534,W,0.01,229.11,080516,,,A*7B
$GPRMC,044503.000,A,2941.4443,N,09537.1534,W,0.02,9.77,080516,,,A*79
$GPRMC,044504.000,A,2941.4443,N,09537.1534,W,0.01,296.07,080516,,,A*7E
$GPRMC,044505.000,A,2941.4443,N,09537.1534,W,0.01,134.44,080516,,,A*73
$GPRMC,044506.000,A,2941.4443,N,09537.1534,W,0.02,317.68,080516,,,A*7E
$GPRMC,044507.000,A,2941.4443,N,09537.1534,W,0.01,104.43,080516,,,A*75
$GPRMC,044508.000,A,2941.4443,N,09537.1534,W,0.02,278.02,080516,,,A*74
$GPRMC,044509.000,A,2941.4443,N,09537.1534,W,0.02,236.07,080516,,,A*7A
$GPRMC,044510.000,A,2941.4443,N,09537.1534,W,0.02,43.30,080516,,,A*46
$GPRMC,044511.000,A,2941.4443,N,09537.1534,W,0.01,265.73,080516,,,A*75
$GPRMC,044512.000,A,2941.4443,N,09537.1534,W,0.02,227.45,080516,,,A*76
$GPRMC,044513.000,A,2941.4442,N,09537.1534,W,0.01,298.06,080516,,,A*76
$GPRMC,044514.000,A,2941.4443,N,09537.1534,W,0.01,103.78,080516,,,A*78
$GPRMC,044515.000,A,2941.4442,N,09537.1534,W,0.03,286.04,080516,,,A*7F
$GPRMC,044516.000,A,2941.4442,N,09537.1534,W,0.02,85.34,080516,,,A*4F
$GPRMC,044517.000,A,2941.4442,N,09537.1534,W,0.03,283.98,080516,,,A*7D
$GPRMC,044518.000,A,2941.4442,N,09537.1534,W,0.01,216.00,080516,,,A*7D
$GPRMC,044519.000,A,2941.4442,N,09537.1534,W,0.01,334.90,080516,,,A*74
$GPRMC,044520.000,A,2941.4442,N,09537.1534,W,0.02,110.53,080516,,,A*76
$GPRMC,044521.000,A,2941.4442,N,09537.1534,W,0.01,65.62,080516,,,A*45
$GPRMC,044522.000,A,2941.4442,N,09537.1534,W,0.01,35.42,080516,,,A*41
$GPRMC,044523.000,A,2941.4442,N,09537.1534,W,0.01,249.95,080516,,,A*73
$GPRMC,044524.000,A,2941.4443,N,09537.1534,W,0.01,14.27,080516,,,A*46
$GPRMC,044525.000,A,2941.4443,N,09537.1534,W,0.00,82.66,080516,,,A*4C
$GPRMC,044526.000,A,2941.4443,N,09537.1534,W,0.01,249.35,080516,,,A*7D
$GPRMC,044527.000,A,2941.4443,N,09537.1534,W,0.00,336.44,080516,,,A*72
$GPRMC,044528.000,A,2941.4443,N,09537.1534,W,0.01,296.86,080516,,,A*79
$GPRMC,044529.000,A,2941.4443,N,09537.1534,W,0.00,55.67,080516,,,A*4B
$GPRMC,044530.000,A,2941.4443,N,09537.1534,W,0.02,7.31,080516,,,A*75
$GPRMC,044531.000,A,2941.4443,N,09537.1534,W,0.01,321.50,080516,,,A*77
$GPRMC,044532.000,A,2941.4443,N,09537.1534,W,0.00,135.24,080516,,,A*71
$GPRMC,044533.000,A,2941.4443,N,09537.1534,W,0.01,146.95,080516,,,A*7F
$GPRMC,044534.000,A,2941.4443,N,09537.1534,W,0.03,64.00,080516,,,A*47
$GPRMC,044535.000,A,2941.4443,N,09537.1534,W,0.02,191.80,080516,,,A*74
$GPRMC,044536.000,A,2941.4443,N,09537.1534,W,0.02,344.75,080516,,,A*77
$GPRMC,044537.000,A,2941.4443,N,09537.1534,W,0.01,116.42,080516,,,A*74
$GPRMC,044538.000,A,2941.4443,N,09537.1534,W,0.01,41.75,080516,,,A*4C
$GPRMC,044539.000,A,2941.4443,N,09537.1534,W,0.02,297.04,080516,,,A*71
$GPRMC,044540.000,A,2941.4443,N,09537.1534,W,0.02,116.04,080516,,,A*75
$GPRMC,044541.000,A,2941.4443,N,09537.1534,W,0.01,282.58,080516,,,A*70
$GPRMC,044542.000,A,2941.4443,N,09537.1534,W,0.03,14.83,080516,,,A*4A
$GPRMC,044543.000,A,2941.4443,N,09537.1534,W,0.05,181.03,080516,,,A*78
$GPRMC,044544.000,A,2941.4443,N,09537.1534,W,0.02,293.28,080516,,,A*71
$GPRMC,044545.000,A,2941.4443,N,09537.1534,W,0.00,199.08,080516,,,A*79
$GPRMC,044546.000,A,2941.4443,N,09537.1534,W,0.01,132.06,080516,,,A*74
$GPRMC,044547.000,A,2941.4443,N,09537.1534,W,0.01,264.06,080516,,,A*75
$GPRMC,044548.000,A,2941.4443,N,09537.1534,W,0.00,0.00,080516,,,A*7D
$GPRMC,044549.000,A,2941.4443,N,09537.1534,W,0.01,222.22,080516,,,A*7F
$GPRMC,044550.000,A,2941.4443,N,09537.1534,W,0.01,99.73,080516,,,A*41
$GPRMC,044551.000,A,2941.4443,N,09537.1534,W,0.00,200.68,080516,,,A*79
$GPRMC,044552.000,A,2941.4443,N,09537.1534,W,0.01,28.56,080516,,,A*4E
$GPRMC,044553.000,A,2941.4443,N,09537.1534,W,0.01,115.55,080516,,,A*73
$GPRMC,044554.000,A,2941.4443,N,09537.1534,W,0.00,275.59,080516,,,A*7C
$GPRMC,044555.000,A,2941.4443,N,09537.1534,W,0.01,280.19,080516,,,A*72
$GPRMC,044556.000,A,2941.4443,N,09537.1534,W,0.01,65.06,080516,,,A*46
$GPRMC,044557.000,A,2941.4443,N,09537.1534,W,0.01,359.86,080516,,,A*73
$GPRMC,044558.000,A,2941.4443,N,09537.1534,W,0.01,255.20,080516,,,A*7D
$GPRMC,044559.000,A,2941.4443,N,09537.1534,W,0.04,341.71,080516,,,A*79
$GPRMC,044600.000,A,2941.4443,N,09537.1534,W,0.01,145.55,080516,,,A*73
$GPRMC,044601.000,A,2941.4443,N,09537.1534,W,0.02,9.72,080516,,,A*7D
$GPRMC,044602.000,A,2941.4443,N,09537.1534,W,0.01,222.96,080516,,,A*7C
$GPRMC,044603.000,A,2941.4443,N,09537.1534,W,0.01,146.54,080516,,,A*72
$GPRMC,044604.000,A,2941.4443,N,09537.1534,W,0.01,130.88,080516,,,A*75
$GPRMC,044605.000,A,2941.4443,N,09537.1534,W,0.03,134.77,080516,,,A*72
$GPRMC,044606.000,A,2941.4443,N,09537.1534,W,0.02,343.20,080516,,,A*70
$GPRMC,044607.000,A,2941.4443,N,09537.1534,W,0.02,304.48,080516,,,A*7C
$GPRMC,044608.000,A,2941.4443,N,09537.1534,W,0.01,136.70,080516,,,A*78
$GPRMC,044609.000,A,2941.4443,N,09537.1534,W,0.02,339.47,080516,,,A*73
$GPRMC,044610.000,A,2941.4443,N,09537.1534,W,0.02,180.50,080516,,,A*7D
$GPRMC,044611.000,A,2941.4443,N,09537.1534,W,0.02,312.21,080516,,,A*73
$GPRMC,044612.000,A,2941.4443,N,09537.1534,W,0.01,198.10,080516,,,A*71
$GPRMC,044613.000,A,2941.4443,N,09537.1534,W,0.01,337.37,080516,,,A*72
$GPRMC,044614.000,A,2941.4443,N,09537.1534,W,0.03,163.51,080516,,,A*74
$GPRMC,044615.000,A,2941.4443,N,09537.1533,W,0.02,332.76,080516,,,A*70
$GPRMC,044616.000,A,2941.4443,N,09537.1533,W,0.01,252.56,080516,,,A*75
$GPRMC,044617.000,A,2941.4443,N,09537.1533,W,0.05,357.54,080516,,,A*76
$GPRMC,044618.000,A,2941.4443,N,09537.1533,W,0.03,182.86,080516,,,A*7A
$GPRMC,044619.000,A,2941.4443,N,09537.1533,W,0.01,17.81,080516,,,A*43
$GPRMC,044620.000,A,2941.4443,N,09537.1533,W,0.03,211.40,080516,,,A*72
$GPRMC,044621.000,A,2941.4443,N,09537.1533,W,0.05,326.61,080516,,,A*73
$GPRMC,044622.000,A,2941.4443,N,09537.1533,W,0.03,150.59,080516,,,A*7E
$GPRMC,044623.000,A,2941.4443,N,09537.1533,W,0.00,103.47,080516,,,A*75
$GPRMC,044624.000,A,2941.4443,N,09537.1533,W,0.00,174.98,080516,,,A*70
$GPRMC,044625.000,A,2941.4443,N,09537.1533,W,0.00,307.84,080516,,,A*7A
$GPRMC,044626.000,A,2941.4443,N,09537.1533,W,0.01,124.76,080516,,,A*76
$GPRMC,044627.000,A,2941.4443,N,09537.1533,W,0.01,64.52,080516,,,A*44
$GPRMC,044628.000,A,2941.4443,N,09537.1533,W,0.02,60.09,080516,,,A*42
$GPRMC,044629.000,A,2941.4443,N,09537.1533,W,0.01,120.89,080516,,,A*7D
$GPRMC,044630.000,A,2941.4443,N,09537.1533,W,0.02,186.61,080516,,,A*7C
$GPRMC,044631.000,A,2941.4443,N,09537.1533,W,0.01,224.00,080516,,,A*72
$GPRMC,044632.000,A,2941.4443,N,09537.1533,W,0.03,287.90,080516,,,A*73
$GPRMC,044633.000,A,2941.4443,N,09537.1533,W,0.01,207.28,080516,,,A*7B
$GPRMC,044634.000,A,2941.4443,N,09537.1533,W,0.01,86.80,080516,,,A*45
$GPRMC,044635.000,A,2941.4443,N,09537.1533,W,0.02,241.56,080516,,,A*75
$GPRMC,044636.000,A,2941.4443,N,09537.1533,W,0.02,308.39,080516,,,A*73
$GPRMC,044637.000,A,2941.4443,N,09537.1533,W,0.01,342.27,080516,,,A*70
$GPRMC,044638.000,A,2941.4443,N,09537.1533,W,0.02,100.11,080516,,,A*7D
$GPRMC,044639.000,A,2941.4443,N,09537.1533,W,0.01,148.81,080516,,,A*7A
$GPRMC,044640.000,A,2941.4443,N,09537.1533,W,0.01,36.07,080516,,,A*42
$GPRMC,044641.000,A,2941.4443,N,09537.1533,W,0.03,12.63,080516,,,A*45
$GPRMC,044642.000,A,2941.4443,N,09537.1533,W,0.01,292.83,080516,,,A*70
$GPRMC,044643.000,A,2941.4443,N,09537.1533,W,0.05,168.72,080516,,,A*7D
$GPRMC,044644.000,A,2941.4443,N,09537.1533,W,0.01,205.75,080516,,,A*71
$GPRMC,044645.000,A,2941.4443,N,09537.1533,W,0.01,154.32,080516,,,A*74
$GPRMC,044646.000,A,2941.4443,N,09537.1533,W,0.02,143.49,080516,,,A*7E
$GPRMC,044647.000,A,2941.4443,N,09537.1533,W,0.01,242.38,080516,,,A*78
$GPRMC,044648.000,A,2941.4443,N,09537.1533,W,0.02,239.38,080516,,,A*78
$GPRMC,044649.000,A,2941.4443,N,09537.1533,W,0.03,324.09,080516,,,A*77
$GPRMC,044650.000,A,2941.4443,N,09537.1533,W,0.01,64.75,080516,,,A*41
$GPRMC,044651.000,A,2941.4443,N,09537.1533,W,0.03,357.75,080516,,,A*71
$GPRMC,044652.000,A,2941.4443,N,09537.1533,W,0.02,137.04,080516,,,A*71
$GPRMC,044653.000,A,2941.4443,N,09537.1533,W,0.01,332.97,080516,,,A*7E
$GPRMC,044654.000,A,2941.4443,N,09537.1533,W,0.01,317.26,080516,,,A*74
$GPRMC,044655.000,A,2941.4443,N,09537.1533,W,0.02,182.93,080516,,,A*76
$GPRMC,044656.000,A,2941.4443,N,09537.1533,W,0.01,287.15,080516,,,A*7E
$GPRMC,044657.000,A,2941.4443,N,09537.1533,W,0.00,25.61,080516,,,A*47
$GPRMC,044658.000,A,2941.4443,N,09537.1533,W,0.02,75.38,080516,,,A*43
$GPRMC,044659.000,A,2941.4443,N,09537.1533,W,0.01,353.21,080516,,,A*7E
$GPRMC,044700.000,A,2941.4443,N,09537.1533,W,0.01,29.22,080516,,,A*4E
$GPRMC,044701.000,A,2941.4443,N,09537.1533,W,0.01,110.71,080516,,,A*72
$GPRMC,044702.000,A,2941.4443,N,09537.1533,W,0.05,260.87,080516,,,A*78
$GPRMC,044703.000,A,2941.4443,N,09537.1533,W,0.02,318.82,080516,,,A*75
$GPRMC,044704.000,A,2941.4443,N,09537.1533,W,0.02,307.12,080516,,,A*75
$GPRMC,044705.000,A,2941.4443,N,09537.1533,W,0.04,36.15,080516,,,A*44
$GPRMC,044706.000,A,2941.4443,N,09537.1533,W,0.02,169.38,080516,,,A*75
$GPRMC,044707.000,A,2941.4443,N,09537.1533,W,0.01,172.13,080516,,,A*74
$GPRMC,044708.000,A,2941.4443,N,09537.1533,W,0.04,183.39,080516,,,A*78
$GPRMC,044709.000,A,2941.4442,N,09537.1533,W,0.06,190.50,080516,,,A*77
$GPRMC,044710.000,A,2941.4442,N,09537.1533,W,0.05,206.20,080516,,,A*77
$GPRMC,044711.000,A,2941.4442,N,09537.1534,W,0.03,254.41,080516,,,A*77
$GPRMC,044712.000,A,2941.4442,N,09537.1534,W,0.04,214.96,080516,,,A*7D
$GPRMC,044713.000,A,2941.4442,N,09537.1534,W,0.03,270.39,080516,,,A*7C
$GPRMC,044714.000,A,2941.4442,N,09537.1534,W,0.04,42.70,080516,,,A*42
$GPRMC,044715.000,A,2941.4442,N,09537.1534,W,0.05,9.72,080516,,,A*7F
$GPRMC,044716.000,A,2941.4442,N,09537.1534,W,0.04,292.75,080516,,,A*7A
$GPRMC,044717.000,A,2941.4442,N,09537.1534,W,0.01,264.12,080516,,,A*76
$GPRMC,044718.000,A,2941.4442,N,09537.1534,W,0.01,28.38,080516,,,A*4B
$GPRMC,044719.000,A,2941.4442,N,09537.1534,W,0.03,21.88,080516,,,A*4A
$GPRMC,044720.000,A,2941.4442,N,09537.1534,W,0.04,31.03,080516,,,A*45
$GPRMC,044721.000,A,2941.4442,N,09537.1534,W,0.01,64.62,080516,,,A*46
$GPRMC,044722.000,A,2941.4442,N,09537.1534,W,0.04,51.80,080516,,,A*4A
$GPRMC,044723.000,A,2941.4442,N,09537.1534,W,0.03,42.87,080516,,,A*49
$GPRMC,044724.000,A,2941.4442,N,09537.1534,W,0.00,236.12,080516,,,A*70
$GPRMC,044725.000,A,2941.4443,N,09537.1534,W,0.03,268.86,080516,,,A*75
$GPRMC,044726.000,A,2941.4443,N,09537.1534,W,0.02,297.34,080516,,,A*7E
$GPRMC,044727.000,A,2941.4443,N,09537.1534,W,0.03,249.09,080516,,,A*73
$GPRMC,044728.000,A,2941.4443,N,09537.1534,W,0.02,249.91,080516,,,A*7C
$GPRMC,044729.000,A,2941.4443,N,09537.1534,W,0.01,359.16,080516,,,A*71
$GPRMC,044730.000,A,2941.4443,N,09537.1534,W,0.01,10.30,080516,,,A*43
$GPRMC,044731.000,A,2941.4443,N,09537.1534,W,0.05,27.75,080516,,,A*43
$GPRMC,044732.000,A,2941.4443,N,09537.1534,W,0.05,0.14,080516,,,A*72
$GPRMC,044733.000,A,2941.4443,N,09537.1534,W,0.05,346.20,080516,,,A*75
$GPRMC,044734.000,A,2941.4443,N,09537.1534,W,0.05,333.52,080516,,,A*75
$GPRMC,044735.000,A,2941.4443,N,09537.1534,W,0.09,304.42,080516,,,A*7D
$GPRMC,044736.000,A,2941.4443,N,09537.1534,W,0.11,302.75,080516,,,A*75
$GPRMC,044737.000,A,2941.4444,N,09537.1534,W,0.11,300.64,080516,,,A*71
$GPRMC,044738.000,A,2941.4444,N,09537.1535,W,0.12,313.95,080516,,,A*70
$GPRMC,044739.000,A,2941.4444,N,09537.1535,W,0.12,324.65,080516,,,A*7A
$GPRMC,044740.000,A,2941.4444,N,09537.1535,W,0.14,330.73,080516,,,A*70
$GPRMC,044741.000,A,2941.4445,N,09537.1535,W,0.14,341.69,080516,,,A*7D
$GPRMC,044742.000,A,2941.4445,N,09537.1536,W,0.14,333.44,080516,,,A*77
$GPRMC,044743.000,A,2941.4445,N,09537.1536,W,0.02,331.53,080516,,,A*75
$GPRMC,044744.000,A,2941.4445,N,09537.1536,W,0.01,330.14,080516,,,A*73
$GPRMC,044745.000,A,2941.4445,N,09537.1536,W,0.03,86.15,080516,,,A*4F
$GPRMC,044746.000,A,2941.4445,N,09537.1536,W,0.01,113.87,080516,,,A*78
$GPRMC,044747.000,A,2941.4445,N,09537.1535,W,0.01,179.51,080516,,,A*7D
$GPRMC,044748.000,A,2941.4445,N,09537.1535,W,0.01,9.91,080516,,,A*78
$GPRMC,044749.000,A,2941.4445,N,09537.1535,W,0.01,257.43,080516,,,A*7F
$GPRMC,044750.000,A,2941.4445,N,09537.1535,W,0.01,203.93,080516,,,A*7B
$GPRMC,044751.000,A,2941.4445,N,09537.1535,W,0.01,184.56,080516,,,A*7F
$GPRMC,044752.000,A,2941.4445,N,09537.1535,W,0.01,335.59,080516,,,A*7B
$GPRMC,044753.000,A,2941.4445,N,09537.1535,W,0.01,124.26,080516,,,A*70
$GPRMC,044754.000,A,2941.4445,N,09537.1535,W,0.02,38.50,080516,,,A*49
$GPRMC,044755.000,A,2941.4445,N,09537.1535,W,0.05,214.53,080516,,,A*70
$GPRMC,044756.000,A,2941.4445,N,09537.1535,W,0.02,89.84,080516,,,A*48
$GPRMC,044757.000,A,2941.4445,N,09537.1535,W,0.02,40.48,080516,,,A*4C
$GPRMC,044758.000,A,2941.4445,N,09537.1535,W,0.02,323.70,080516,,,A*7E
$GPRMC,044759.000,A,2941.4446,N,09537.1535,W,0.03,164.16,080516,,,A*7C
$GPRMC,044800.000,A,2941.4446,N,09537.1535,W,0.00,197.92,080516,,,A*7C
$GPRMC,044801.000,A,2941.4446,N,09537.1535,W,0.02,135.64,080516,,,A*7E
$GPRMC,044802.000,A,2941.4446,N,09537.1535,W,0.01,186.24,080516,,,A*72
$GPRMC,044803.000,A,2941.4446,N,09537.1535,W,0.01,107.57,080516,,,A*7E
$GPRMC,044804.000,A,2941.4446,N,09537.1535,W,0.01,163.83,080516,,,A*72
$GPRMC,044805.000,A,2941.4446,N,09537.1535,W,0.02,229.28,080516,,,A*7C
$GPRMC,044806.000,A,2941.4446,N,09537.1535,W,0.02,108.73,080516,,,A*71
$GPRMC,044807.000,A,2941.4446,N,09537.1535,W,0.01,307.20,080516,,,A*78
$GPRMC,044808.000,A,2941.4446,N,09537.1535,W,0.00,314.87,080516,,,A*79
$GPRMC,044809.000,A,2941.4446,N,09537.1535,W,0.02,177.25,080516,,,A*75
$GPRMC,044810.000,A,2941.4446,N,09537.1535,W,0.03,96.63,080516,,,A*40
$GPRMC,044811.000,A,2941.4446,N,09537.1535,W,0.03,311.94,080516,,,A*75
$GPRMC,044812.000,A,2941.4446,N,09537.1535,W,0.01,222.12,080516,,,A*7B
$GPRMC,044813.000,A,2941.4446,N,09537.1535,W,0.02,318.17,080516,,,A*74
$GPRMC,044814.000,A,2941.4446,N,09537.1535,W,0.03,143.20,080516,,,A*7A
$GPRMC,044815.000,A,2941.4446,N,09537.1535,W,0.01,314.41,080516,,,A*7E
$GPRMC,044816.000,A,2941.4446,N,09537.1535,W,0.02,340.94,080516,,,A*77
$GPRMC,044817.000,A,2941.4446,N,09537.1535,W,0.01,63.99,080516,,,A*4A
$GPRMC,044818.000,A,2941.4446,N,09537.1535,W,0.04,207.13,080516,,,A*72
$GPRMC,044819.000,A,2941.4446,N,09537.1535,W,0.02,93.63,080516,,,A*4D
$GPRMC,044820.000,A,2941.4446,N,09537.1535,W,0.02,297.70,080516,,,A*73
$GPRMC,044821.000,A,2941.4446,N,09537.1535,W,0.01,190.77,080516,,,A*72
$GPRMC,044822.000,A,2941.4446,N,09537.1535,W,0.02,39.52,080516,,,A*47
$GPRMC,044823.000,A,2941.4446,N,09537.1535,W,0.02,181.50,080516,,,A*76
$GPRMC,044824.000,A,2941.4446,N,09537.1535,W,0.01,132.98,080516,,,A*7E
$GPRMC,044825.000,A,2941.4446,N,09537.1535,W,0.03,322.38,080516,,,A*74
$GPRMC,044826.000,A,2941.4446,N,09537.1535,W,0.00,17.74,080516,,,A*49
$GPRMC,044827.000,A,2941.4446,N,09537.1535,W,0.00,112.25,080516,,,A*78
$GPRMC,044828.000,A,2941.4446,N,09537.1535,W,0.01,75.82,080516,,,A*4B
$GPRMC,044829.000,A,2941.4446,N,09537.1535,W,0.01,108.51,080516,,,A*7F
$GPRMC,044830.000,A,2941.4446,N,09537.1535,W,0.01,133.07,080516,,,A*7C
$GPRMC,044831.000,A,2941.4446,N,09537.1535,W,0.02,346.75,080516,,,A*7B
$GPRMC,044832.000,A,2941.4446,N,09537.1535,W,0.01,128.54,080516,,,A*72
$GPRMC,044833.000,A,2941.4446,N,09537.1535,W,0.01,19.34,080516,,,A*46
$GPRMC,044834.000,A,2941.4446,N,09537.1535,W,0.01,227.21,080516,,,A*7A
$GPRMC,044835.000,A,2941.4446,N,09537.1535,W,0.01,216.00,080516,,,A*7A
$GPRMC,044836.000,A,2941.4446,N,09537.1535,W,0.00,220.97,080516,,,A*73
